StationId,obsTime,ELEV,RAIN,MIN_10,HOUR_3,HOUR_6,HOUR_12,HOUR_24,NOW,StationName,CountyName,Lon,Lat
81U870,2022/10/30 19:20,322.0,58.0,0.0,144.0,216.0,245.5,334.0,292.5,樂水分校,宜蘭縣,121.529309,24.600282
C0UA40,2022/10/30 19:20,1121.0,30.0,1.5,80.5,159.0,317.0,497.5,434.0,西德山,宜蘭縣,121.752608,24.560647
C1A760,2022/10/30 19:20,217.0,28.0,7.0,80.0,103.5,108.0,120.0,108.0,坪林交控,新北市,121.638556,24.942842
C0UA00,2022/10/30 19:20,392.0,20.5,5.5,52.0,75.5,82.5,116.5,96.0,土場,宜蘭縣,121.495333,24.576533
L1A830,2022/10/30 19:20,210.0,18.5,0.0,47.0,66.5,67.5,73.5,67.5,坪林,新北市,121.713797,24.936785
C0UA10,2022/10/30 19:20,1711.0,17.5,2.5,49.0,74.5,86.5,128.5,103.0,鴛鴦湖,宜蘭縣,121.412228,24.590269
C0T9D0,2022/10/30 19:20,7.0,14.5,0.0,20.5,36.5,56.5,108.0,99.5,和中,花蓮縣,121.741031,24.266761
C0AH00,2022/10/30 19:20,38.0,14.0,3.0,40.5,59.5,100.5,136.5,114.0,汐止,新北市,121.658778,25.066881
C0S900,2022/10/30 19:20,27.0,14.0,1.5,31.0,72.5,87.0,116.5,111.0,蘭嶼高中,臺東縣,121.512142,22.049094
01U050,2022/10/30 19:20,400.0,14.0,0.0,42.0,63.0,68.0,101.0,81.0,土場(1),宜蘭縣,121.49644,24.572873
88T830,2022/10/30 19:20,21.0,13.0,0.0,20.0,35.5,55.5,106.0,96.5,和中,花蓮縣,121.741801,24.270832
A1AB40,2022/10/30 19:20,27.0,13.0,0.0,29.0,44.5,60.0,71.0,63.5,玉成,臺北市,121.582507,25.052193
C0AC70,2022/10/30 19:20,71.0,11.0,2.5,36.5,51.5,61.5,63.0,62.0,信義,臺北市,121.564597,25.037822
C1A9N0,2022/10/30 19:20,435.0,11.0,3.5,19.0,27.0,27.5,28.5,27.5,四十份,新北市,121.593283,24.934158
A1AA70,2022/10/30 19:20,38.0,10.5,0.0,41.0,68.5,79.5,81.5,80.0,舊莊國小,臺北市,121.619405,25.039991
L1A820,2022/10/30 19:20,530.0,10.5,0.0,25.0,40.5,42.5,45.0,42.5,十三股,新北市,121.649599,24.943989
C0UA50,2022/10/30 19:20,808.0,10.0,1.5,39.5,78.0,212.0,419.0,347.0,西帽山,宜蘭縣,121.802628,24.555361
C0S910,2022/10/30 19:20,212.0,9.5,1.0,27.5,54.5,59.5,73.5,69.0,蘭嶼燈塔,臺東縣,121.503117,22.081197
C1U840,2022/10/30 19:20,750.0,9.5,3.0,19.5,28.5,32.0,63.0,49.0,東澳嶺,宜蘭縣,121.8485,24.5378
467620,2022/10/30 19:20,324.0,9.5,1.0,17.0,37.5,42.5,60.5,56.0,蘭嶼,臺東縣,121.55843,22.0369
C0Z310,2022/10/30 19:20,59.0,9.5,2.0,11.5,20.0,48.5,84.5,70.0,清水斷崖,花蓮縣,121.689142,24.218294
A1AA60,2022/10/30 19:20,32.0,9.5,0.0,36.0,57.0,69.0,70.5,69.5,留公國中,臺北市,121.585606,25.037192
466910,2022/10/30 19:20,832.6,9.0,1.5,20.0,44.0,56.0,86.0,80.5,鞍部,臺北市,121.529731,25.182586
01AG00,2022/10/30 19:20,13.0,9.0,0.0,30.0,47.0,80.0,118.0,93.0,社后橋,新北市,121.633793,25.063288
01A420,2022/10/30 19:20,600.0,9.0,0.0,25.0,52.0,72.0,115.0,111.0,竹子湖,臺北市,121.54405,25.162299
C1U850,2022/10/30 19:20,665.0,8.5,6.0,23.0,40.0,46.0,69.0,66.0,觀音海岸,宜蘭縣,121.778556,24.383194
466930,2022/10/30 19:20,607.1,8.0,1.5,22.5,49.5,69.5,115.0,109.0,陽明山,臺北市,121.544547,25.162078
C0AH70,2022/10/30 19:20,34.0,8.0,1.0,19.5,29.5,38.5,44.5,41.0,松山,臺北市,121.550428,25.048711
466990,2022/10/30 19:20,16.1,8.0,2.0,9.0,11.5,17.5,29.5,27.5,花蓮,花蓮縣,121.613275,23.975128
01U230,2022/10/30 19:20,48.0,8.0,0.0,23.0,38.0,79.0,124.0,110.0,大濁水,宜蘭縣,121.739594,24.329422
C0U760,2022/10/30 19:20,22.0,7.5,2.0,20.0,29.5,30.0,60.5,43.0,東澳,宜蘭縣,121.833175,24.521958
C0R790,2022/10/30 19:20,111.0,7.5,1.5,10.0,10.0,10.0,10.0,10.0,九棚,屏東縣,120.894356,22.142069
A1AA80,2022/10/30 19:20,83.0,7.5,0.0,31.5,45.0,54.0,55.5,54.5,市政中心,臺北市,121.556406,25.038894
C0Z190,2022/10/30 19:20,62.0,7.0,0.5,7.5,10.5,23.5,39.0,33.0,富世,花蓮縣,121.629703,24.147433
C1Z110,2022/10/30 19:20,680.0,7.0,2.0,8.5,11.0,20.5,35.0,30.0,三棧,花蓮縣,121.605006,24.115569
CAA010,2022/10/30 19:20,39.0,7.0,0.5,20.5,34.0,64.0,117.5,89.5,國一N013K,新北市,121.628153,25.066739
A1AD10,2022/10/30 19:20,769.0,6.5,0.0,20.0,61.0,80.0,117.5,114.0,擎天崗,臺北市,121.568014,25.163293
82A750,2022/10/30 19:20,401.0,6.5,1.0,16.5,33.5,38.5,39.0,38.5,茶改北部分場,新北市,121.631222,24.955778
C0Z150,2022/10/30 19:20,27.0,6.0,2.5,7.0,8.0,14.5,30.5,26.0,吉安光華,花蓮縣,121.595153,23.930925
C0Z100,2022/10/30 19:20,36.0,6.0,2.0,6.5,7.5,14.5,30.0,25.5,東華,花蓮縣,121.549833,23.89525
C0S730,2022/10/30 19:20,110.0,5.5,1.0,18.5,21.5,26.0,26.5,26.5,綠島,臺東縣,121.475328,22.667203
C0Z230,2022/10/30 19:20,31.0,5.5,0.5,11.5,20.0,27.0,61.5,55.0,和平,花蓮縣,121.770069,24.307169
C0UA60,2022/10/30 19:20,566.0,5.5,4.0,13.5,19.5,25.5,43.0,39.0,樟樹山,宜蘭縣,121.783247,24.413925
C0U960,2022/10/30 19:20,1885.0,5.5,0.5,15.5,27.0,33.5,60.0,43.0,翠峰湖,宜蘭縣,121.608044,24.510856
C0T9E0,2022/10/30 19:20,415.0,5.5,1.0,7.5,9.0,17.0,31.5,27.0,大坑,花蓮縣,121.581981,23.880628
O1T800,2022/10/30 19:20,103.0,5.0,0.0,9.0,12.0,15.0,30.0,19.0,奇美國小,花蓮縣,121.445929,23.496927
O1T840,2022/10/30 19:20,18.0,5.0,0.0,6.0,8.0,14.0,27.0,25.0,花蓮,花蓮縣,121.605986,23.972934
C0T9A0,2022/10/30 19:20,498.0,5.0,0.5,9.0,12.0,22.0,35.5,29.0,月眉山,花蓮縣,121.539828,23.809928
A1AD20,2022/10/30 19:20,662.0,5.0,0.0,13.0,31.5,42.5,82.5,74.5,竹子湖,臺北市,121.528315,25.168295
C0Z290,2022/10/30 19:20,946.0,5.0,1.0,14.0,19.0,25.0,42.5,33.5,赤柯山,花蓮縣,121.382931,23.368928
C0R760,2022/10/30 19:20,336.0,5.0,1.0,9.0,10.0,10.0,10.0,10.0,南仁湖,屏東縣,120.863353,22.084681
C0T9I0,2022/10/30 19:20,152.0,5.0,0.0,13.0,17.0,17.5,21.0,19.0,豐濱,花蓮縣,121.514806,23.583897
C0R720,2022/10/30 19:20,214.0,5.0,0.5,7.0,7.0,7.0,7.0,7.0,旭海,屏東縣,120.887614,22.205403
C1TA00,2022/10/30 19:20,94.0,5.0,1.0,5.5,6.5,14.5,31.5,22.5,太魯閣,花蓮縣,121.623597,24.157728
A1A9Z0,2022/10/30 19:20,31.0,5.0,0.0,21.5,31.0,35.0,36.5,36.0,中正國中,臺北市,121.521906,25.031696
72T250,2022/10/30 19:20,36.0,4.5,1.5,4.5,5.0,10.0,24.5,22.0,花蓮農改,花蓮縣,121.563889,23.975222
C0R830,2022/10/30 19:20,383.0,4.5,0.5,8.0,8.5,8.5,8.5,8.5,高士,屏東縣,120.836781,22.121825
C1AI50,2022/10/30 19:20,64.0,4.5,0.5,19.0,32.0,37.0,38.0,37.0,國三N016K,臺北市,121.619664,25.034164
C0AI10,2022/10/30 19:20,76.0,4.5,0.0,6.5,8.0,8.0,8.0,8.0,屈尺,新北市,121.544725,24.921836
CAAH60,2022/10/30 19:20,18.0,4.5,1.0,20.5,30.5,36.5,38.0,37.5,大安森林,臺北市,121.53628,25.02955
C0AC40,2022/10/30 19:20,1079.0,4.5,1.0,11.5,25.0,35.0,67.0,59.0,大屯山,臺北市,121.522408,25.175675
C0A550,2022/10/30 19:20,422.0,4.5,1.0,9.5,51.5,89.5,113.5,106.0,泰平,新北市,121.823711,24.971197
C0Z180,2022/10/30 19:20,34.0,4.5,0.0,4.5,5.5,15.0,31.5,27.0,新城,花蓮縣,121.604878,24.040486
A1AA50,2022/10/30 19:20,34.0,4.5,0.0,11.0,20.5,44.0,97.5,76.0,東湖國小,臺北市,121.615007,25.069191
C1T920,2022/10/30 19:20,68.0,4.5,3.0,7.5,11.5,20.0,35.5,29.5,中興,花蓮縣,121.498653,23.769503
C0U770,2022/10/30 19:20,5.0,4.5,2.5,8.0,11.0,13.5,23.5,18.0,南澳,宜蘭縣,121.810219,24.449347
C0R680,2022/10/30 19:20,4.0,4.0,0.5,7.5,10.0,10.0,10.0,10.0,佳樂水,屏東縣,120.861633,21.993578
C0AH30,2022/10/30 19:20,755.0,4.0,0.0,10.5,32.0,40.5,43.0,43.0,五分山,新北市,121.780794,25.07125
01T9J0,2022/10/30 19:20,730.0,4.0,0.0,13.0,14.0,17.0,36.0,20.0,六十石山,花蓮縣,121.32297,23.217557
01U790,2022/10/30 19:20,268.0,4.0,0.0,34.0,70.0,299.0,561.0,488.0,清水,宜蘭縣,121.637272,24.614906
C1U930,2022/10/30 19:20,5.0,4.0,2.5,13.5,14.0,14.0,18.0,18.0,粉鳥林,宜蘭縣,121.842481,24.497089
01B030,2022/10/30 19:20,16.0,4.0,0.0,16.0,31.0,71.0,119.0,108.0,五堵,基隆市,121.696626,25.079005
C1S880,2022/10/30 19:20,474.0,4.0,0.5,5.0,5.0,5.0,5.0,5.0,壽卡,臺東縣,120.858903,22.238911
466920,2022/10/30 19:20,6.3,4.0,0.5,15.5,24.5,29.0,32.0,31.5,臺北,臺北市,121.514853,25.037658
01Q860,2022/10/30 19:20,320.0,4.0,0.0,7.0,7.0,7.0,7.0,7.0,牡丹,屏東縣,120.836703,22.175595
C0T9H0,2022/10/30 19:20,725.0,4.0,1.0,14.0,16.5,18.0,27.5,23.5,加路蘭山,花蓮縣,121.5274,23.682947
C1T970,2022/10/30 19:20,183.0,4.0,0.5,6.0,8.0,11.5,24.0,17.0,大農,花蓮縣,121.413331,23.615233
A1AB20,2022/10/30 19:20,31.0,4.0,0.0,14.0,20.5,23.0,24.5,24.0,雙園,臺北市,121.490307,25.030298
C0Z280,2022/10/30 19:20,224.0,4.0,0.0,5.0,5.5,6.5,15.5,9.0,德武,花蓮縣,121.410711,23.474264
CAA040,2022/10/30 19:20,71.0,4.0,0.5,16.5,28.0,32.0,32.5,32.0,國三S016K,臺北市,121.6158,25.03306
01T500,2022/10/30 19:20,20.0,4.0,0.0,4.0,6.0,15.0,32.0,28.0,北埔,花蓮縣,121.604462,24.037079
01A200,2022/10/30 19:20,380.0,4.0,0.0,10.0,37.0,106.0,257.0,209.0,火燒寮,新北市,121.749275,24.981089
A1AA00,2022/10/30 19:20,28.0,3.5,0.0,18.0,28.5,35.0,36.0,35.5,三興國小,臺北市,121.558106,25.029194
C0Z270,2022/10/30 19:20,343.0,3.5,2.0,10.5,13.0,17.0,27.0,25.0,蕃薯寮,花蓮縣,121.540108,23.73835
C0T9F0,2022/10/30 19:20,251.0,3.5,0.5,6.5,9.0,13.5,21.0,18.0,水璉,花蓮縣,121.542514,23.797131
C0C680,2022/10/30 19:20,228.0,3.5,1.0,9.0,12.0,13.0,13.5,13.5,龜山,桃園市,121.386561,25.028458
A1A9Y0,2022/10/30 19:20,28.0,3.5,0.0,10.5,18.5,29.0,44.5,37.0,民生國中,臺北市,121.566707,25.059693
C0R280,2022/10/30 19:20,242.0,3.5,0.5,7.5,8.5,8.5,8.5,8.5,檳榔,屏東縣,120.836794,22.076075
A1A9T0,2022/10/30 19:20,318.0,3.5,0.0,7.5,17.0,27.5,52.0,47.5,大屯國小,臺北市,121.503915,25.154997
L1A840,2022/10/30 19:20,403.0,3.0,0.0,8.0,44.5,81.0,102.0,96.5,太平,新北市,121.828198,24.971779
C0R840,2022/10/30 19:20,536.0,3.0,0.5,5.0,5.0,5.0,5.0,5.0,牡丹池山,屏東縣,120.841225,22.168389
CAA030,2022/10/30 19:20,50.0,3.0,0.5,6.5,15.5,48.0,149.5,127.5,國三S010K,新北市,121.6475,25.08
01U070,2022/10/30 19:20,585.0,3.0,0.0,7.0,15.0,16.0,24.0,17.0,留茂安,宜蘭縣,121.451236,24.531772
01U470,2022/10/30 19:20,32.0,3.0,0.0,16.0,21.0,25.0,50.0,41.0,武塔,宜蘭縣,121.77722,24.449458
01T730,2022/10/30 19:20,30.0,3.0,0.0,9.0,11.0,12.0,16.0,13.0,豐濱,花蓮縣,121.520492,23.602442
A1AG40,2022/10/30 19:20,315.0,3.0,0.0,15.5,27.5,32.0,33.0,32.5,四獸山,臺北市,121.582905,25.029293
A1AC60,2022/10/30 19:20,44.0,3.0,0.0,15.5,27.5,32.5,33.5,32.5,九如里,臺北市,121.611605,25.032491
01R000,2022/10/30 19:20,420.0,3.0,0.0,4.0,4.0,4.0,4.0,4.0,壽卡,屏東縣,120.835687,22.245154
C0R750,2022/10/30 19:20,551.0,3.0,0.5,6.5,8.0,8.0,8.0,8.0,四林格山,屏東縣,120.802439,22.076989
21D350,2022/10/30 19:20,2000.0,3.0,0.0,8.0,11.5,12.5,17.0,12.5,西丘斯山,新竹縣,121.358179,24.581505
C1U920,2022/10/30 19:20,2085.0,2.5,0.5,4.0,11.0,12.0,16.5,12.5,思源,宜蘭縣,121.347214,24.393125
C0T9B0,2022/10/30 19:20,558.0,2.5,1.5,3.0,3.0,7.0,25.5,16.0,水源,花蓮縣,121.537169,23.991861
C0Z070,2022/10/30 19:20,247.0,2.5,0.5,3.5,3.5,5.5,11.5,9.0,舞鶴,花蓮縣,121.374069,23.468114
81T870,2022/10/30 19:20,26.0,2.5,0.0,9.0,10.5,11.0,17.5,12.5,東興部落,花蓮縣,121.530893,23.635204
C0C740,2022/10/30 19:20,5.3,2.5,0.5,4.0,4.5,5.0,5.5,5.5,觀音工業區,桃園市,121.114858,25.064767
C0Z220,2022/10/30 19:20,589.0,2.5,1.0,6.5,15.0,31.5,59.0,49.5,和平林道,花蓮縣,121.656317,24.343922
C0A860,2022/10/30 19:20,362.0,2.5,1.5,3.5,24.0,26.5,26.5,26.5,大坪,新北市,121.632969,25.165914
A1AD00,2022/10/30 19:20,489.0,2.5,0.0,7.0,22.5,28.5,38.0,35.5,菁山里,臺北市,121.566013,25.143993
C0Z061,2022/10/30 19:20,174.0,2.5,0.5,5.0,5.5,6.5,14.0,9.5,玉里,花蓮縣,121.339656,23.3215
C0Z170,2022/10/30 19:20,199.0,2.5,0.5,3.5,3.5,4.5,13.0,7.5,卓溪,花蓮縣,121.302853,23.344331
C0Z210,2022/10/30 19:20,126.0,2.5,0.0,4.5,4.5,6.0,21.0,11.5,瑞穗,花蓮縣,121.390211,23.5239
A0A460,2022/10/30 19:20,424.4,2.2,1.0,5.0,13.8,18.0,24.0,21.8,文化大學,臺北市,121.53987,25.13605
C0C690,2022/10/30 19:20,242.0,2.0,0.0,4.0,7.5,8.0,9.0,9.0,國一五楊N44K,桃園市,121.340164,25.063861
01U560,2022/10/30 19:20,1960.0,2.0,0.0,8.0,13.0,17.0,40.0,27.0,太平山(1),宜蘭縣,121.536435,24.494522
01A410,2022/10/30 19:20,15.0,2.0,0.0,16.0,28.0,32.0,34.0,33.0,中正橋,臺北市,121.516401,25.021931
01T9L0,2022/10/30 19:20,110.0,2.0,0.0,7.0,8.0,15.0,29.0,23.0,東富,花蓮縣,121.482088,23.684836
L1A790,2022/10/30 19:20,202.0,2.0,0.0,2.5,3.5,3.5,3.5,3.5,翡翠,新北市,121.580097,24.907093
C0R780,2022/10/30 19:20,72.0,2.0,0.5,5.0,6.5,6.5,6.5,6.5,滿州,屏東縣,120.839892,22.024403
C0AH40,2022/10/30 19:20,426.0,2.0,1.0,4.5,18.0,23.0,36.5,33.0,平等,臺北市,121.577086,25.129142
C0U900,2022/10/30 19:20,63.0,2.0,2.0,3.0,5.5,7.5,8.0,8.0,內城,宜蘭縣,121.687664,24.718133
C1S870,2022/10/30 19:20,222.0,2.0,0.5,7.0,8.5,8.5,9.5,8.5,南美山,臺東縣,121.382333,23.15025
C0R710,2022/10/30 19:20,117.0,2.0,0.5,4.0,6.5,6.5,6.5,6.5,龍磐,屏東縣,120.838942,21.931672
C0S840,2022/10/30 19:20,22.0,2.0,0.5,2.0,2.0,2.0,2.0,2.0,南田,臺東縣,120.889208,22.279725
01U450,2022/10/30 19:20,160.0,2.0,0.0,12.0,15.0,24.0,45.0,38.0,樟林,宜蘭縣,121.749405,24.42585
81T900,2022/10/30 19:20,179.0,2.0,0.0,3.0,3.5,4.5,13.5,7.5,卓溪國小,花蓮縣,121.303333,23.345833
C0R800,2022/10/30 19:20,131.0,2.0,0.5,2.5,2.5,2.5,2.5,2.5,丹路,屏東縣,120.750989,22.204481
C0R690,2022/10/30 19:20,248.0,2.0,0.5,4.5,7.0,7.0,7.0,7.0,墾丁,屏東縣,120.810269,21.966756
81S910,2022/10/30 19:20,21.0,2.0,0.0,2.0,2.5,2.5,2.5,2.5,膽曼,臺東縣,121.412806,23.224869
C0U870,2022/10/30 19:20,474.0,2.0,1.0,2.5,3.0,9.5,9.5,9.5,大礁溪,宜蘭縣,121.675047,24.791042
01U060,2022/10/30 19:20,295.0,2.0,0.0,42.0,108.0,175.0,294.0,240.0,梵梵(2),宜蘭縣,121.525585,24.613062
C0Z080,2022/10/30 19:20,298.0,2.0,0.0,4.0,5.0,8.0,18.5,11.5,富源,花蓮縣,121.378225,23.587642
C0A870,2022/10/30 19:20,685.0,2.0,1.0,4.0,19.0,25.0,40.5,38.5,五指山,新北市,121.608692,25.132153
CAC020,2022/10/30 19:20,109.0,1.5,0.0,2.0,2.5,2.5,2.5,2.5,國二E009K,桃園市,121.273697,25.018244
A1AC80,2022/10/30 19:20,111.0,1.5,0.0,3.0,10.5,17.0,28.0,25.5,明德樂園,臺北市,121.565711,25.113693
C0U600,2022/10/30 19:20,10.0,1.5,0.0,1.5,1.5,2.5,2.5,2.5,礁溪,宜蘭縣,121.765608,24.817539
C1T950,2022/10/30 19:20,1050.0,1.5,0.5,3.5,9.5,17.5,43.0,29.5,太安,花蓮縣,121.370128,23.666719
C0C620,2022/10/30 19:20,19.0,1.5,0.5,2.5,4.5,5.5,7.0,7.0,蘆竹,桃園市,121.265767,25.084275
81T890,2022/10/30 19:20,103.0,1.5,0.0,3.0,3.5,5.0,19.0,11.5,瑞北國小,花蓮縣,121.376111,23.525556
C0ACA0,2022/10/30 19:20,25.0,1.5,0.5,2.0,3.0,3.5,4.5,4.5,新莊,新北市,121.446756,25.051478
A1AD80,2022/10/30 19:20,278.0,1.5,0.0,3.0,5.5,10.0,21.5,19.0,貴子坑,臺北市,121.489815,25.155898
C0C720,2022/10/30 19:20,21.0,1.5,0.0,3.0,3.5,4.0,4.5,4.5,竹圍,桃園市,121.239825,25.112694
C0T9M0,2022/10/30 19:20,92.0,1.5,0.0,4.5,6.0,6.0,11.5,7.0,靜浦,花蓮縣,121.495028,23.455167
88T920,2022/10/30 19:20,128.0,1.5,0.0,5.0,6.5,9.5,21.0,15.0,大興,花蓮縣,121.397778,23.631944
C0S980,2022/10/30 19:20,903.0,1.5,0.5,2.0,2.0,2.0,2.5,2.0,勝林山,臺東縣,120.8938,22.430439
A1AD60,2022/10/30 19:20,317.0,1.5,0.0,4.0,10.0,16.0,16.0,16.0,貓空,臺北市,121.595301,24.968892
A1AD40,2022/10/30 19:20,814.0,1.5,0.0,4.5,13.0,16.5,23.5,22.5,小油坑,臺北市,121.548816,25.180294
C0C480,2022/10/30 19:20,105.0,1.5,0.5,4.5,9.5,11.5,11.5,11.5,桃園,桃園市,121.323172,24.992425
81T880,2022/10/30 19:20,13.0,1.5,0.0,4.0,7.0,7.0,14.5,8.5,石梯坪,花蓮縣,121.511389,23.483056
C0UA30,2022/10/30 19:20,1397.0,1.5,0.0,5.0,9.0,9.0,14.5,9.5,白嶺,宜蘭縣,121.519031,24.527819
C1Z120,2022/10/30 19:20,62.0,1.5,0.5,1.5,2.0,7.0,19.0,14.0,壽豐,花蓮縣,121.508081,23.870853
C0T960,2022/10/30 19:20,120.0,1.5,0.0,4.5,6.0,10.0,18.5,14.5,光復,花蓮縣,121.424964,23.660694
L1A810,2022/10/30 19:20,378.0,1.5,0.0,1.5,2.0,2.0,2.0,2.0,九芎根,新北市,121.649896,24.902389
C0SA90,2022/10/30 19:20,497.0,1.5,0.0,1.5,1.5,1.5,1.5,1.5,達仁林場,臺東縣,120.823972,22.264347
C1S850,2022/10/30 19:20,489.0,1.5,0.0,3.5,3.5,4.0,9.0,5.5,豐南,花蓮縣,121.262389,23.122139
C0AI30,2022/10/30 19:20,26.0,1.5,0.0,2.5,3.5,4.5,5.5,5.5,三重,新北市,121.500625,25.057378
81AH80,2022/10/30 19:20,73.0,1.5,0.0,8.0,16.5,17.0,17.0,17.0,五城加油站,新北市,121.470989,24.939858
C0R620,2022/10/30 19:20,34.0,1.5,0.5,4.5,9.5,9.5,9.5,9.5,墾雷,屏東縣,120.855269,21.900836
C0R770,2022/10/30 19:20,93.0,1.5,0.0,3.5,4.0,4.0,4.0,4.0,保力,屏東縣,120.764111,22.071122
CAC040,2022/10/30 19:20,1684.0,1.0,0.0,3.5,5.5,11.0,19.0,16.0,拉拉山,桃園市,121.427133,24.699317
01T240,2022/10/30 19:20,940.0,1.0,0.0,3.0,3.0,4.0,16.0,6.0,苗圃,花蓮縣,121.279375,23.417015
C0T9G0,2022/10/30 19:20,605.0,1.0,0.0,1.0,6.0,11.5,26.0,20.5,鳳林山,花蓮縣,121.420131,23.735269
C0Z330,2022/10/30 19:20,488.0,1.0,0.0,2.5,2.5,3.0,7.0,4.0,安通山,花蓮縣,121.348528,23.290728
C0Z200,2022/10/30 19:20,153.0,1.0,0.5,1.5,4.0,12.5,27.5,21.0,萬榮,花蓮縣,121.420106,23.709219
A1AC90,2022/10/30 19:20,453.0,1.0,0.0,4.5,22.5,29.0,42.0,39.0,溪山里,臺北市,121.588912,25.136892
C0S790,2022/10/30 19:20,236.0,1.0,0.0,1.0,1.0,1.0,1.0,1.0,金崙,臺東縣,120.966875,22.538122
A0A010,2022/10/30 19:20,17.0,1.0,0.0,5.0,14.5,16.0,17.0,17.0,臺灣大學,臺北市,121.539416,25.014278
C1Z030,2022/10/30 19:20,218.0,1.0,0.0,1.5,1.5,2.5,9.5,5.0,紅葉,花蓮縣,121.338806,23.493119
81T860,2022/10/30 19:20,98.0,1.0,0.0,4.5,7.5,16.0,25.5,21.5,山興分校,花蓮縣,121.4975,23.727778
C0T9N0,2022/10/30 19:20,261.0,1.0,0.0,2.5,2.5,3.0,9.0,5.0,富里,花蓮縣,121.249378,23.171639
C0S770,2022/10/30 19:20,375.0,1.0,0.0,1.0,1.0,1.0,1.0,1.0,大溪山,臺東縣,120.943325,22.478475
C0AH50,2022/10/30 19:20,275.0,1.0,0.0,1.5,2.0,2.5,3.0,3.0,林口,新北市,121.380839,25.072181
O1AH30,2022/10/30 19:20,174.0,1.0,0.0,3.0,5.0,10.0,18.0,18.0,吉林國小,新北市,121.887489,24.985827
C0T870,2022/10/30 19:20,135.0,1.0,1.0,1.0,1.0,3.5,17.0,12.5,鯉魚潭,花蓮縣,121.508944,23.935639
01C570,2022/10/30 19:20,64.0,1.0,0.0,4.0,6.0,7.0,7.0,7.0,龍壽社區,桃園市,121.387637,25.010105
A1AB80,2022/10/30 19:20,127.0,1.0,0.0,3.0,9.5,14.5,25.5,23.0,雙溪,臺北市,121.569411,25.113593
A1AB50,2022/10/30 19:20,25.0,1.0,0.0,2.0,3.5,6.0,13.0,12.0,建國,臺北市,121.528909,25.072195
01S270,2022/10/30 19:20,115.0,1.0,0.0,6.0,7.0,7.0,13.0,8.0,樟原(1),臺東縣,121.459474,23.403797
C0V730,2022/10/30 19:20,33.0,1.0,0.5,2.0,2.0,2.0,2.0,2.0,大寮,高雄市,120.395717,22.605614
C1Z040,2022/10/30 19:20,434.0,1.0,0.0,1.5,2.0,3.0,13.0,7.5,立山,花蓮縣,121.327375,23.443356
C0AH90,2022/10/30 19:20,660.0,1.0,0.5,4.0,9.0,31.0,36.0,34.0,福山植物園,新北市,121.58135,24.760717
21C090,2022/10/30 19:20,1260.0,1.0,0.0,6.0,10.0,11.0,13.0,12.0,嘎拉賀,桃園市,121.408182,24.631502
O1T820,2022/10/30 19:20,150.0,1.0,0.0,2.0,2.0,3.0,7.0,6.0,太平國小,花蓮縣,121.320127,23.405748
C1R290,2022/10/30 19:20,260.0,1.0,0.0,2.0,2.0,2.0,2.0,2.0,石門山,屏東縣,120.756597,22.112611
01T720,2022/10/30 19:20,210.0,1.0,0.0,2.0,2.0,2.0,7.0,3.0,明里,花蓮縣,121.25167,23.202324
C0R600,2022/10/30 19:20,766.0,1.0,0.0,3.0,8.0,8.0,8.0,8.0,舊泰武,屏東縣,120.664944,22.588194
CAA070,2022/10/30 19:20,54.0,1.0,0.5,3.0,8.0,9.0,9.0,9.0,國三N046K,新北市,121.3958,24.95083
O1S660,2022/10/30 19:20,43.0,1.0,0.0,1.0,1.0,1.0,1.0,1.0,賓茂國小,臺東縣,120.954393,22.532409
A1AG30,2022/10/30 19:20,160.0,1.0,0.0,2.5,3.0,5.5,9.5,9.0,稻香里,臺北市,121.483915,25.147998
O1R620,2022/10/30 19:20,9.6,1.0,0.0,2.0,2.0,2.0,2.0,2.0,新庄國小,屏東縣,120.488328,22.560122
C0A520,2022/10/30 19:20,48.0,1.0,0.0,3.5,8.0,9.0,9.0,9.0,山佳,新北市,121.402008,24.974944
A1AC70,2022/10/30 19:20,118.0,1.0,0.0,3.5,12.0,14.0,16.0,16.0,挹翠山莊,臺北市,121.574405,25.017093
CAA060,2022/10/30 19:20,50.0,1.0,0.5,2.5,9.0,10.0,10.0,10.0,國三S042K,新北市,121.4306,24.96
C0U710,2022/10/30 19:20,1942.0,1.0,0.0,3.5,5.5,7.5,17.0,10.5,太平山,宜蘭縣,121.525656,24.505486
467610,2022/10/30 19:20,33.3,1.0,0.0,6.5,8.5,8.5,9.5,8.5,成功,臺東縣,121.373428,23.097486
21D170,2022/10/30 19:20,630.0,1.0,0.0,1.0,1.0,1.0,1.5,1.0,鎮西堡,新竹縣,121.308179,24.564908
V2C260,2022/10/30 19:20,103.0,1.0,0.5,2.5,4.0,4.5,4.5,4.5,八德蔬果,桃園市,121.281819,24.978508
CAC050,2022/10/30 19:20,23.0,1.0,0.5,2.0,3.5,4.0,4.5,4.5,西濱S023K,桃園市,121.27551,25.11649
CAA050,2022/10/30 19:20,51.0,1.0,0.5,2.5,8.5,9.5,9.5,9.5,國三S037K,新北市,121.471042,24.982361
81T910,2022/10/30 19:20,173.0,1.0,0.0,1.0,1.0,1.5,5.0,2.5,東里國中,花蓮縣,121.303056,23.263333
01S470,2022/10/30 19:20,2362.0,1.0,0.0,3.0,3.0,4.0,10.0,4.0,向陽(2),臺東縣,120.985899,23.247932
467080,2022/10/30 19:20,7.4,1.0,0.0,1.5,2.0,2.5,3.5,3.5,宜蘭,宜蘭縣,121.756528,24.763975
72AI40,2022/10/30 19:20,40.0,1.0,0.5,3.5,10.5,11.0,11.5,11.0,桃改樹林分場,新北市,121.386972,24.944503
C0V720,2022/10/30 19:20,15.0,1.0,0.0,1.5,1.5,1.5,1.5,1.5,林園,高雄市,120.394511,22.507747
01U120,2022/10/30 19:20,60.0,1.0,0.0,13.0,17.0,23.0,41.0,33.0,新寮(1),宜蘭縣,121.751929,24.624996
C0A9F0,2022/10/30 19:20,35.0,1.0,0.5,2.5,6.5,14.0,42.5,36.0,內湖,臺北市,121.57545,25.079422
01T230,2022/10/30 19:20,180.0,1.0,0.0,2.0,2.0,3.0,12.0,5.0,立山,花蓮縣,121.312632,23.430078
C0U990,2022/10/30 19:20,31.0,1.0,1.0,1.5,2.0,3.0,3.5,3.5,員山,宜蘭縣,121.722472,24.74435
C0Z250,2022/10/30 19:20,1124.0,1.0,0.5,2.0,3.0,4.5,16.5,6.5,瑞穗林道,花蓮縣,121.306883,23.492842
81R650,2022/10/30 19:20,119.0,1.0,0.0,1.5,1.5,1.5,1.5,1.5,丹路國小,屏東縣,120.751358,22.203384
C0SA20,2022/10/30 19:20,857.0,1.0,0.0,1.5,1.5,1.5,2.0,1.5,金崙山,臺東縣,120.959667,22.567419
C0V450,2022/10/30 19:20,51.0,1.0,0.0,2.0,2.0,2.0,2.0,2.0,鳳森,高雄市,120.392592,22.545064
CAB020,2022/10/30 19:20,52.0,1.0,0.0,5.5,15.0,47.0,177.0,162.5,國一S006K,基隆市,121.6869,25.08694
C1Z240,2022/10/30 19:20,1163.0,1.0,0.0,3.5,4.5,5.0,19.0,7.0,中平林道,花蓮縣,121.267631,23.421147
C0U970,2022/10/30 19:20,7.0,1.0,0.0,1.5,1.5,3.0,3.0,3.0,大福,宜蘭縣,121.813892,24.800636
O1S680,2022/10/30 19:20,1110.0,1.0,0.0,1.0,1.0,1.0,2.0,1.0,金針山,臺東縣,120.952564,22.642801
81U860,2022/10/30 19:20,46.0,1.0,0.0,17.0,40.5,62.5,163.5,142.0,金岳國小,宜蘭縣,121.777318,24.47039
C0AC60,2022/10/30 19:20,55.0,1.0,0.0,3.0,9.0,9.0,9.0,9.0,三峽,新北市,121.369728,24.939025
466900,2022/10/30 19:20,19.0,1.0,0.0,2.0,4.0,5.5,12.5,10.5,淡水,新北市,121.448906,25.164889
467590,2022/10/30 19:20,22.3,1.0,0.0,2.5,3.0,3.0,3.0,3.0,恆春,屏東縣,120.746339,22.003897
01AF90,2022/10/30 19:20,118.0,1.0,0.0,2.0,9.0,11.0,11.0,11.0,三貂嶺,新北市,121.820556,25.059541
B2Q810,2022/10/30 19:20,20.0,1.0,0.0,3.0,5.0,5.0,5.0,5.0,畜試南區分所,屏東縣,120.802167,21.945583
467660,2022/10/30 19:20,9.0,1.0,0.5,1.0,1.0,1.0,1.0,1.0,臺東,臺東縣,121.154586,22.752211
CAQ030,2022/10/30 19:20,10.0,0.5,0.0,2.5,2.5,2.5,2.5,2.5,崎峰國小,屏東縣,120.49521,22.42565
C1T830,2022/10/30 19:20,675.0,0.5,0.5,0.5,0.5,2.5,7.5,4.5,布洛灣,花蓮縣,121.571269,24.171842
C0U910,2022/10/30 19:20,17.0,0.5,0.0,6.0,7.0,8.0,9.5,9.0,冬山,宜蘭縣,121.793697,24.633725
81AH70,2022/10/30 19:20,93.0,0.5,0.0,0.5,12.5,15.5,19.5,18.0,柑林國小,新北市,121.804444,25.015833
C0U860,2022/10/30 19:20,5.0,0.5,0.0,1.5,2.0,2.0,2.0,2.0,頭城,宜蘭縣,121.830797,24.853233
C0SA60,2022/10/30 19:20,11.0,0.5,0.0,0.5,0.5,0.5,0.5,0.5,知本水試所,臺東縣,121.082761,22.702394
CAA080,2022/10/30 19:20,97.0,0.5,0.0,2.0,5.5,5.5,5.5,5.5,國三S054K,新北市,121.3239,24.93917
C0S990,2022/10/30 19:20,409.0,0.5,0.0,0.5,0.5,0.5,0.5,0.5,山豬窟,臺東縣,120.857372,22.318619
CAA020,2022/10/30 19:20,27.0,0.5,0.5,0.5,1.0,1.5,3.0,3.0,國一S026K,新北市,121.4964,25.07639
A1AG60,2022/10/30 19:20,122.0,0.5,0.0,4.0,12.5,14.0,15.5,15.5,福州山,臺北市,121.554305,25.016894
C0S700,2022/10/30 19:20,507.0,0.5,0.0,0.5,0.5,0.5,0.5,0.5,知本,臺東縣,121.005644,22.684872
C0C730,2022/10/30 19:20,5.0,0.5,0.0,0.5,0.5,0.5,0.5,0.5,中大臨海站,桃園市,121.008583,24.966128
C1AI60,2022/10/30 19:20,181.0,0.5,0.0,1.5,2.0,2.5,3.5,3.5,國一39K,新北市,121.383836,25.064361
88R460,2022/10/30 19:20,189.0,0.5,0.0,0.5,1.5,1.5,1.5,1.5,來義,屏東縣,120.676125,22.525964
E2S960,2022/10/30 19:20,26.0,0.5,0.0,0.5,0.5,0.5,0.5,0.5,太麻里2,臺東縣,120.99775,22.598
C0AD40,2022/10/30 19:20,32.0,0.5,0.0,2.5,9.5,10.5,10.5,10.5,土城,新北市,121.445169,24.973208
C0R640,2022/10/30 19:20,21.0,0.5,0.0,1.5,1.5,1.5,1.5,1.5,東港,屏東縣,120.440744,22.462467
E2S980,2022/10/30 19:20,100.0,0.5,0.0,0.5,0.5,0.5,0.5,0.5,太麻里1,臺東縣,120.980044,22.598922
C0U780,2022/10/30 19:20,15.0,0.5,0.0,2.5,2.5,2.5,3.5,3.5,五結,宜蘭縣,121.797944,24.686369
C0Z160,2022/10/30 19:20,124.0,0.5,0.0,1.0,4.0,15.0,32.5,25.0,鳳林,花蓮縣,121.453411,23.746114
C0S740,2022/10/30 19:20,289.0,0.5,0.5,1.0,1.0,1.0,3.0,1.5,池上,臺東縣,121.209469,23.119628
CAB040,2022/10/30 19:20,76.0,0.5,0.5,1.5,12.0,27.5,93.0,86.5,國三S007K,基隆市,121.6678,25.09694
81AI10,2022/10/30 19:20,91.0,0.5,0.0,6.0,9.0,9.0,9.0,9.0,建安國小,新北市,121.446624,24.925692
A1AG50,2022/10/30 19:20,143.0,0.5,0.0,1.5,2.0,4.0,10.0,9.0,劍潭山,臺北市,121.52841,25.083096
C0R270,2022/10/30 19:20,51.0,0.5,0.5,2.0,2.0,2.0,2.0,2.0,琉球嶼,屏東縣,120.362236,22.332244
C0F0D0,2022/10/30 19:20,3171.0,0.5,0.0,1.5,4.0,4.5,5.5,4.5,審馬陣,臺中市,121.4203,24.381675
C0AG80,2022/10/30 19:20,48.0,0.5,0.0,1.5,8.5,10.0,10.0,10.0,中和,新北市,121.491792,24.991622
A1AG20,2022/10/30 19:20,181.0,0.5,0.0,1.5,7.0,12.5,32.5,28.0,大湖里,臺北市,121.604109,25.096391
C1V570,2022/10/30 19:20,82.0,0.5,0.5,0.5,0.5,0.5,0.5,0.5,吉東,高雄市,120.5454,22.854222
C0Z320,2022/10/30 19:20,646.0,0.5,0.0,0.5,0.5,0.5,9.5,1.0,清水林道,花蓮縣,121.188272,23.27125
C0V710,2022/10/30 19:20,34.0,0.5,0.0,0.5,0.5,0.5,0.5,0.5,苓雅,高雄市,120.330669,22.622742
C0AJ30,2022/10/30 19:20,22.0,0.5,0.0,2.5,6.0,7.5,10.5,10.5,淡水觀海,新北市,121.408617,25.184592
C0S750,2022/10/30 19:20,2280.0,0.5,0.0,3.0,3.5,3.5,10.5,3.5,向陽,臺東縣,120.986133,23.248397
82C160,2022/10/30 19:20,195.0,0.5,0.0,0.5,1.0,1.0,1.0,1.0,茶改場,桃園市,121.185333,24.908472
C0C660,2022/10/30 19:20,176.0,0.5,0.0,0.5,1.0,1.0,1.0,1.0,楊梅,桃園市,121.143047,24.912375
C0S960,2022/10/30 19:20,32.0,0.5,0.0,0.5,0.5,0.5,0.5,0.5,香蘭,臺東縣,120.993375,22.587569
C0AD50,2022/10/30 19:20,84.0,0.5,0.0,3.0,6.5,7.0,7.0,7.0,鶯歌,新北市,121.346294,24.951533
81AH40,2022/10/30 19:20,47.0,0.5,0.0,2.5,6.0,7.0,7.5,7.0,精忠,新北市,121.53208,24.959713
B2U990,2022/10/30 19:20,10.0,0.5,0.0,2.0,2.0,2.5,3.5,3.5,畜試東區分所,宜蘭縣,121.832561,24.669039
A1A9U0,2022/10/30 19:20,28.0,0.5,0.0,1.0,1.0,1.5,1.5,1.5,桃源國中,臺北市,121.476914,25.134398
C0Z020,2022/10/30 19:20,211.0,0.5,0.0,1.0,1.0,1.5,5.0,2.5,明里,花蓮縣,121.262342,23.208717
C0C710,2022/10/30 19:20,143.0,0.5,0.0,0.5,0.5,0.5,0.5,0.5,大溪永福,桃園市,121.324975,24.892936
C0C650,2022/10/30 19:20,208.0,0.5,0.0,0.5,1.5,1.5,1.5,1.5,平鎮,桃園市,121.214636,24.897503
C1S670,2022/10/30 19:20,1580.0,0.5,0.0,0.5,0.5,0.5,4.0,1.0,摩天,臺東縣,121.027,23.199503
C0I540,2022/10/30 19:20,3344.0,0.5,0.0,0.5,0.5,0.5,1.0,0.5,奇萊稜線,南投縣,121.326456,24.109231
A1AD50,2022/10/30 19:20,121.0,0.5,0.0,1.0,3.5,7.0,17.5,15.0,劍南路,臺北市,121.55131,25.089894
72Q010,2022/10/30 19:20,45.0,0.5,0.0,0.5,0.5,0.5,0.5,0.5,高雄農改,屏東縣,120.525889,22.709333
A1A9V0,2022/10/30 19:20,37.0,0.5,0.0,1.5,3.5,5.0,5.5,5.5,北投國小,臺北市,121.498913,25.133897
C1A750,2022/10/30 19:20,92.0,0.5,0.0,1.5,4.5,6.5,18.5,16.0,石碇服務區,新北市,121.638017,25.00865
C0S970,2022/10/30 19:20,19.0,0.5,0.0,0.5,0.5,0.5,0.5,0.5,加津林,臺東縣,120.926942,22.416211
C0S830,2022/10/30 19:20,288.0,0.5,0.0,1.5,2.0,2.0,3.5,2.0,長濱,臺東縣,121.411975,23.286817
A1A9X0,2022/10/30 19:20,20.0,0.5,0.0,3.0,5.5,8.0,11.5,11.0,太平國小,臺北市,121.511708,25.061696
C0S920,2022/10/30 19:20,133.0,0.5,0.0,0.5,0.5,0.5,0.5,0.5,金峰嘉蘭,臺東縣,120.960825,22.594789
C0AJ20,2022/10/30 19:20,50.0,0.5,0.0,0.5,1.0,1.0,1.0,1.0,野柳,新北市,121.690022,25.207031
C0Z300,2022/10/30 19:20,182.0,0.5,0.0,1.0,1.0,1.0,5.0,2.5,東里,花蓮縣,121.305469,23.268528
C0SA00,2022/10/30 19:20,466.0,0.5,0.5,0.5,0.5,0.5,1.0,0.5,歷坵,臺東縣,120.89185,22.520969
C0R350,2022/10/30 19:20,35.0,0.5,0.0,1.0,2.5,2.5,2.5,2.5,貓鼻頭,屏東縣,120.735817,21.921689
467050,2022/10/30 19:20,20.6,0.5,0.0,1.0,1.0,1.0,1.0,1.0,新屋,桃園市,121.047492,25.006725
C0U980,2022/10/30 19:20,573.0,0.5,0.0,0.5,0.5,1.0,2.0,2.0,坪林石牌,宜蘭縣,121.773961,24.864781
CAQ020,2022/10/30 19:20,38.0,0.5,0.0,2.0,2.0,2.0,2.0,2.0,國三S415K,屏東縣,120.528,22.568
C0AI40,2022/10/30 19:20,12.0,0.5,0.0,0.5,1.0,1.0,1.0,1.0,石牌,臺北市,121.513167,25.115597
A1AG70,2022/10/30 19:20,81.0,0.5,0.0,0.5,7.0,9.0,10.0,10.0,仙跡岩,臺北市,121.543203,24.989295
CAB030,2022/10/30 19:20,107.0,0.5,0.5,0.5,15.5,19.0,38.0,38.0,國三S004K,基隆市,121.6886,25.11444
C1U670,2022/10/30 19:20,105.0,0.5,0.5,14.5,21.5,43.5,73.0,67.5,寒溪,宜蘭縣,121.716908,24.634003
A2C560,2022/10/30 19:20,121.0,0.5,0.0,1.0,2.0,2.0,2.0,2.0,農工中心,桃園市,121.239833,24.985917
467540,2022/10/30 19:20,8.1,0.5,0.0,0.5,0.5,0.5,0.5,0.5,大武,臺東縣,120.90374,22.35572
C0S940,2022/10/30 19:20,150.0,0.5,0.0,1.5,1.5,1.5,2.5,1.5,石寧山,臺東縣,121.406639,23.223772
C0T900,2022/10/30 19:20,160.0,0.5,0.0,0.5,2.0,5.0,20.0,12.0,西林,花蓮縣,121.441458,23.8119
C1C510,2022/10/30 19:20,106.0,0.5,0.0,0.5,1.0,1.0,1.0,1.0,水尾,桃園市,121.087161,24.940081
C0S810,2022/10/30 19:20,65.0,0.5,0.5,1.5,1.5,1.5,1.5,1.5,東河,臺東縣,121.303986,22.972672
A1AD30,2022/10/30 19:20,97.0,0.5,0.0,2.0,8.0,20.5,69.5,60.5,安泰里,臺北市,121.613109,25.087591
C0AD10,2022/10/30 19:20,27.0,0.5,0.0,0.5,0.5,0.5,1.0,1.0,八里,新北市,121.403947,25.150211
C0UB00,2022/10/30 19:20,379.0,0.5,0.5,0.5,1.0,1.0,1.5,1.5,淡大蘭陽校園,宜蘭縣,121.730383,24.823239
A1A9W0,2022/10/30 19:20,18.0,0.5,0.0,0.5,1.0,1.0,3.0,3.0,陽明高中,臺北市,121.51671,25.092496
A1AA10,2022/10/30 19:20,394.0,0.5,0.0,2.5,10.0,12.5,17.0,15.5,格致國中,臺北市,121.545613,25.131395
C0C700,2022/10/30 19:20,151.0,0.5,0.5,1.5,2.0,2.5,2.5,2.5,中壢,桃園市,121.256375,24.977661
C1T990,2022/10/30 19:20,128.0,0.5,0.0,1.5,2.0,2.0,2.0,2.0,高寮,花蓮縣,121.356808,23.394239
A1AA30,2022/10/30 19:20,53.0,0.5,0.0,1.5,5.5,7.5,13.5,12.5,至善國中,臺北市,121.555611,25.103294
C0AH10,2022/10/30 19:20,30.0,0.5,0.0,4.0,14.0,15.5,16.0,16.0,永和,新北市,121.508111,25.01125
C0R650,2022/10/30 19:20,29.0,0.5,0.0,2.0,2.0,2.0,2.0,2.0,竹田,屏東縣,120.543442,22.584861
C0UA70,2022/10/30 19:20,547.0,0.5,0.0,1.0,1.0,2.0,2.0,2.0,桃源谷,宜蘭縣,121.888875,24.962606
C0R560,2022/10/30 19:20,22.0,0.5,0.0,1.5,1.5,1.5,1.5,1.5,新園,屏東縣,120.461558,22.5434
C0R730,2022/10/30 19:20,163.0,0.5,0.0,0.5,0.5,0.5,0.5,0.5,大坪頂,屏東縣,120.69355,22.024633
C1SA70,2022/10/30 19:20,62.0,0.5,0.0,0.5,0.5,0.5,1.0,0.5,都蘭,臺東縣,121.226881,22.87794
C0U950,2022/10/30 19:20,1012.0,0.5,0.0,1.0,1.5,2.5,5.5,5.0,鶯子嶺,宜蘭縣,121.792444,24.897536
C0R320,2022/10/30 19:20,7.0,0.5,0.0,0.5,0.5,0.5,0.5,0.5,車城,屏東縣,120.716247,22.0744
C0C490,2022/10/30 19:20,157.0,0.5,0.5,2.0,4.0,4.0,4.0,4.0,八德,桃園市,121.283289,24.928708
C0R440,2022/10/30 19:20,1654.0,0.5,0.0,2.0,3.0,3.0,6.5,4.0,大漢山,屏東縣,120.753181,22.405264
C1S800,2022/10/30 19:20,80.0,0.5,0.0,0.5,0.5,0.5,0.5,0.5,華源,臺東縣,121.02325,22.657883
01A440,2022/10/30 19:20,916.0,0.0,0.0,0.0,1.0,1.0,2.0,1.0,大桶山,新北市,121.562992,24.876212
88V560,2022/10/30 19:20,403.0,0.0,0.0,0.5,0.5,0.5,0.5,0.5,集來,高雄市,120.592901,23.028691
01A380,2022/10/30 19:20,101.0,0.0,0.0,0.0,13.0,15.0,19.0,19.0,瑞芳(2),新北市,121.803301,25.110338
C0R480,2022/10/30 19:20,57.0,0.0,0.0,0.5,0.5,0.5,0.5,0.5,長治,屏東縣,120.542622,22.693128
C1V340,2022/10/30 19:20,190.0,0.0,0.0,0.5,0.5,0.5,0.5,0.5,大津,高雄市,120.645986,22.888322
C0R810,2022/10/30 19:20,25.0,0.0,0.0,0.0,3.5,3.5,3.5,3.5,內獅,屏東縣,120.642986,22.305064
C1R250,2022/10/30 19:20,92.0,0.0,0.0,0.0,2.0,2.0,2.0,2.0,力里,屏東縣,120.629228,22.428117
C0F9Y0,2022/10/30 19:20,3313.0,0.0,0.0,0.5,0.5,0.5,1.0,0.5,桃山,臺中市,121.303808,24.432739
C0AC80,2022/10/30 19:20,40.0,0.0,0.0,0.5,5.5,6.5,8.0,8.0,文山,臺北市,121.575728,25.00235
C0V790,2022/10/30 19:20,410.0,0.0,0.0,0.0,0.5,0.5,0.5,0.5,萬山,高雄市,120.688056,22.905944
C0A570,2022/10/30 19:20,360.0,0.0,0.0,0.0,0.5,1.0,1.0,1.0,桶後,新北市,121.597992,24.848222
81AH50,2022/10/30 19:20,10.0,0.0,0.0,0.0,5.0,6.0,6.0,6.0,萬里國小,新北市,121.689444,25.175833
01S260,2022/10/30 19:20,153.0,0.0,0.0,3.0,4.0,4.0,5.0,4.0,忠勇,臺東縣,121.439636,23.325933
CAB010,2022/10/30 19:20,49.0,0.0,0.0,0.0,12.0,12.5,27.0,26.5,國一S001K,基隆市,121.7286,25.11583
C0R540,2022/10/30 19:20,17.0,0.0,0.0,0.5,2.0,2.0,2.0,2.0,佳冬,屏東縣,120.552375,22.419456
C0B020,2022/10/30 19:20,86.0,0.0,0.0,0.0,5.0,5.0,5.0,5.0,基隆嶼,基隆市,121.783914,25.191408
01Q960,2022/10/30 19:20,841.0,0.0,0.0,1.0,2.0,2.0,2.0,2.0,泰武(2),屏東縣,120.685278,22.598611
81T850,2022/10/30 19:20,116.0,0.0,0.0,0.0,2.0,3.5,12.0,9.0,溪口國小,花蓮縣,121.473333,23.819722
81U910,2022/10/30 19:20,45.0,0.0,0.0,7.5,9.0,9.0,13.5,13.0,永樂國小,宜蘭縣,121.844167,24.575833
21C070,2022/10/30 19:20,1220.0,0.0,0.0,0.5,1.0,5.0,10.5,9.5,巴陵,桃園市,121.391485,24.681503
NUP460,2022/10/30 19:20,101.0,0.0,0.0,3.0,11.0,12.0,13.0,13.0,平溪旅遊,新北市,121.773797,25.048418
01T560,2022/10/30 19:20,200.0,0.0,0.0,0.0,1.0,3.0,15.0,7.0,西林,花蓮縣,121.432069,23.819214
C0U650,2022/10/30 19:20,442.0,0.0,0.0,2.5,8.5,68.5,98.5,92.0,玉蘭,宜蘭縣,121.587061,24.675286
C0AH80,2022/10/30 19:20,68.0,0.0,0.0,1.0,3.5,5.5,14.0,13.0,深坑,新北市,121.628328,25.002703
01R440,2022/10/30 19:20,28.7,0.0,0.0,3.0,3.0,3.0,3.0,3.0,泗林,屏東縣,120.569592,22.545635
C0U940,2022/10/30 19:20,25.0,0.0,0.0,2.5,2.5,3.5,4.0,4.0,羅東,宜蘭縣,121.749344,24.681836
CAQ010,2022/10/30 19:20,33.0,0.0,0.0,1.0,1.0,1.0,1.0,1.0,國三N425K,屏東縣,120.531666,22.480277
A1AB10,2022/10/30 19:20,42.0,0.0,0.0,0.5,6.5,8.5,9.5,9.5,埤腹,臺北市,121.545303,24.986395
01U780,2022/10/30 19:20,804.0,0.0,0.0,1.0,2.0,3.0,5.0,4.0,四季,宜蘭縣,121.426136,24.488418
C0A890,2022/10/30 19:20,40.0,0.0,0.0,1.0,5.5,6.5,7.5,7.5,雙溪,新北市,121.864242,25.036003
C0AJ40,2022/10/30 19:20,154.0,0.0,0.0,1.5,6.5,7.0,7.0,7.0,石門,新北市,121.6012,25.273672
C0R550,2022/10/30 19:20,38.0,0.0,0.0,0.5,1.5,1.5,1.5,1.5,新埤,屏東縣,120.582894,22.467947
C0R220,2022/10/30 19:20,23.0,0.0,0.0,2.5,2.5,2.5,2.5,2.5,潮州,屏東縣,120.54,22.534361
01A220,2022/10/30 19:20,33.0,0.0,0.0,2.0,7.0,8.0,8.0,8.0,三峽,新北市,121.355555,24.938878
C0R700,2022/10/30 19:20,19.0,0.0,0.0,0.0,0.5,0.5,0.5,0.5,枋山,屏東縣,120.661086,22.246844
A1AD70,2022/10/30 19:20,375.0,0.0,0.0,1.5,9.5,11.5,12.5,12.5,茶製場,臺北市,121.663304,25.028388
C0A640,2022/10/30 19:20,241.0,0.0,0.0,1.5,5.0,16.0,57.5,49.0,石碇,新北市,121.662917,24.993969
01U460,2022/10/30 19:20,83.0,0.0,0.0,0.0,1.0,1.0,1.0,1.0,五峰,宜蘭縣,121.748477,24.829997
C0R520,2022/10/30 19:20,18.0,0.0,0.0,2.0,2.0,2.0,2.0,2.0,崁頂,屏東縣,120.506914,22.514781
01A350,2022/10/30 19:20,0.0,0.0,0.0,1.0,2.0,2.0,2.0,2.0,富貴角,新北市,121.544109,25.288486
A1AG80,2022/10/30 19:20,80.0,0.0,0.0,1.0,3.5,4.5,14.5,11.5,金面山,臺北市,121.56991,25.094893
O1AH20,2022/10/30 19:20,71.0,0.0,0.0,0.0,6.0,7.0,10.0,10.0,上林國小,新北市,121.832514,25.029351
C1T940,2022/10/30 19:20,539.0,0.0,0.0,1.0,3.0,6.0,24.5,13.5,大觀,花蓮縣,121.373133,23.714206
72U480,2022/10/30 19:20,27.0,0.0,0.0,2.5,2.5,5.5,6.5,6.5,花改蘭陽分場,宜蘭縣,121.716583,24.686306
81U900,2022/10/30 19:20,12.0,0.0,0.0,0.5,1.0,1.0,2.0,2.0,大溪國小,宜蘭縣,121.886944,24.935556
01Q350,2022/10/30 19:20,250.0,0.0,0.0,0.0,1.0,1.0,1.0,1.0,新來義,屏東縣,120.678346,22.526997
C0B040,2022/10/30 19:20,15.0,0.0,0.0,0.0,6.0,6.5,6.5,6.5,大武崙,基隆市,121.706994,25.166678
81AI30,2022/10/30 19:20,84.0,0.0,0.0,1.5,20.5,25.0,27.5,27.5,大粗坑,新北市,121.838927,25.091251
01A190,2022/10/30 19:20,360.0,0.0,0.0,0.0,1.0,1.0,2.0,1.0,碧湖,新北市,121.745559,24.890886
G2AI50,2022/10/30 19:20,9.0,0.0,0.0,0.5,0.5,0.5,0.5,0.5,台農院關渡站,臺北市,121.492,25.11575
C0A950,2022/10/30 19:20,60.0,0.0,0.0,0.5,2.5,2.5,2.5,2.5,鼻頭角,新北市,121.923372,25.129036
CAB050,2022/10/30 19:20,79.0,0.0,0.0,0.0,11.5,12.5,12.5,12.5,國三N002K,基隆市,121.7217,25.14583
C1V780,2022/10/30 19:20,1050.0,0.0,0.0,0.0,0.5,0.5,0.5,0.5,多納林道,高雄市,120.737917,22.888028
C0R570,2022/10/30 19:20,37.0,0.0,0.0,1.0,1.0,1.0,1.0,1.0,麟洛,屏東縣,120.527192,22.650775
C0B050,2022/10/30 19:20,5.0,0.0,0.0,0.0,6.5,6.5,6.5,6.5,八斗子,基隆市,121.791672,25.144756
01U130,2022/10/30 19:20,5.0,0.0,0.0,7.0,8.0,9.0,12.0,11.0,冬山,宜蘭縣,121.783933,24.635687
12Q970,2022/10/30 19:20,16.0,0.0,0.0,1.0,1.0,1.0,1.0,1.0,東港工作站,屏東縣,120.466058,22.479997
O1R630,2022/10/30 19:20,8.0,0.0,0.0,2.0,2.0,2.0,2.0,2.0,崁頂,屏東縣,120.511111,22.513226
C1T810,2022/10/30 19:20,2049.0,0.0,0.0,1.0,2.5,3.0,11.0,4.5,慈恩,花蓮縣,121.388386,24.192044
C0R190,2022/10/30 19:20,32.0,0.0,0.0,4.5,4.5,4.5,4.5,4.5,赤山,屏東縣,120.614306,22.592333
01Q360,2022/10/30 19:20,140.0,0.0,0.0,0.0,2.0,2.0,2.0,2.0,南和,屏東縣,120.638399,22.434551
C0AJ50,2022/10/30 19:20,30.0,0.0,0.0,0.0,2.5,3.0,3.0,3.0,水湳洞,新北市,121.862239,25.123697
NUP490,2022/10/30 19:20,55.0,0.0,0.0,1.0,15.0,24.0,52.0,51.0,復興國小,基隆市,121.657791,25.109012
C0A940,2022/10/30 19:20,49.0,0.0,0.0,0.0,1.0,1.0,1.0,1.0,金山,新北市,121.643967,25.223628
C0U890,2022/10/30 19:20,116.0,0.0,0.0,1.5,4.5,36.0,44.5,43.5,三星,宜蘭縣,121.653017,24.668122
C0B010,2022/10/30 19:20,38.0,0.0,0.0,1.0,9.5,18.5,104.0,101.0,七堵,基隆市,121.717128,25.094819
C0R490,2022/10/30 19:20,49.0,0.0,0.0,0.5,0.5,0.5,0.5,0.5,九如,屏東縣,120.490503,22.7405
CAA090,2022/10/30 19:20,60.0,0.0,0.0,1.0,5.0,6.5,9.5,9.0,國三甲005K,臺北市,121.5975,25.00194
01A130,2022/10/30 19:20,250.0,0.0,0.0,1.0,5.0,6.0,15.0,13.0,石碇(2),新北市,121.657883,24.991596
C0R660,2022/10/30 19:20,20.0,0.0,0.0,0.0,1.0,1.0,1.0,1.0,枋寮,屏東縣,120.590647,22.367722
C1R630,2022/10/30 19:20,60.0,0.0,0.0,0.5,0.5,0.5,0.5,0.5,龍泉,屏東縣,120.590911,22.667011
C1V580,2022/10/30 19:20,1656.0,0.0,0.0,0.0,0.5,0.5,0.5,0.5,溪南(特),高雄市,120.788475,23.084972
81AH90,2022/10/30 19:20,253.0,0.0,0.0,0.0,0.5,5.0,6.0,5.5,信賢派出所,新北市,121.526111,24.838333
C0R580,2022/10/30 19:20,10.0,0.0,0.0,1.5,1.5,1.5,1.5,1.5,南州,屏東縣,120.502736,22.485911
C0U520,2022/10/30 19:20,517.0,0.0,0.0,2.5,3.5,20.0,21.5,20.5,雙連埤,宜蘭縣,121.641303,24.753033
01AD90,2022/10/30 19:20,108.0,0.0,0.0,0.0,1.0,1.0,1.0,1.0,覽勝橋,新北市,121.551378,24.862306
01U190,2022/10/30 19:20,16.5,0.0,0.0,2.0,2.0,3.0,4.0,4.0,新北城,宜蘭縣,121.748775,24.680903
C1AC50,2022/10/30 19:20,111.0,0.0,0.0,0.5,0.5,0.5,0.5,0.5,關渡,臺北市,121.469331,25.133486
CAC030,2022/10/30 19:20,203.0,0.0,0.0,0.5,0.5,0.5,0.5,0.5,國三N063K,桃園市,121.2636,24.889514
01AG10,2022/10/30 19:20,778.0,0.0,0.0,0.0,2.0,4.0,5.0,4.0,熊空山,新北市,121.451992,24.87561
C0R820,2022/10/30 19:20,588.0,0.0,0.0,0.0,0.5,0.5,0.5,0.5,白鷺,屏東縣,120.666219,22.454275
81R660,2022/10/30 19:20,22.0,0.0,0.0,0.0,3.5,3.5,3.5,3.5,內獅國小,屏東縣,120.644722,22.305
L1A800,2022/10/30 19:20,386.0,0.0,0.0,0.0,1.0,1.0,1.5,1.5,碧湖,新北市,121.745694,24.892584
C0AI20,2022/10/30 19:20,25.0,0.0,0.0,0.5,1.0,1.0,1.0,1.0,白沙灣,新北市,121.519058,25.283128
A1AA90,2022/10/30 19:20,53.0,0.0,0.0,0.5,6.0,7.5,9.5,9.5,博嘉國小,臺北市,121.575304,25.002193
C1U501,2022/10/30 19:20,280.0,0.0,0.0,9.5,23.0,203.0,491.0,416.5,牛鬥,宜蘭縣,121.573656,24.637836
01T220,2022/10/30 19:20,207.0,0.0,0.0,1.0,1.0,1.0,8.0,2.0,卓麓(4),花蓮縣,121.266944,23.295556
C0A770,2022/10/30 19:20,60.0,0.0,0.0,0.0,0.5,0.5,2.0,2.0,科教館,臺北市,121.516506,25.096356
A1AB00,2022/10/30 19:20,39.0,0.0,0.0,0.0,4.0,5.5,6.5,6.5,北政國中,臺北市,121.577502,24.984393
C0AI00,2022/10/30 19:20,188.0,0.0,0.0,0.0,0.5,0.5,1.0,1.0,五股,新北市,121.427281,25.074453
C0R470,2022/10/30 19:20,103.0,0.0,0.0,0.5,0.5,0.5,0.5,0.5,高樹,屏東縣,120.600806,22.826389
466940,2022/10/30 19:20,26.7,0.0,0.0,0.0,12.0,13.0,13.5,13.5,基隆,基隆市,121.740475,25.133314
81R640,2022/10/30 19:20,75.0,0.0,0.0,1.5,1.5,1.5,1.5,1.5,佳義國小,屏東縣,120.630973,22.653117
C0C630,2022/10/30 19:20,209.0,-998.0,-998.0,-998.0,-998.0,0.0,0.0,0.0,大溪,桃園市,121.265547,24.882853
A2N290,2022/10/30 19:20,23.0,-998.0,-998.0,-998.0,-998.0,0.0,0.0,0.0,臺南蘭花園區,臺南市,120.379661,23.340258
81M660,2022/10/30 19:20,1186.0,-998.0,-998.0,-998.0,-998.0,0.0,0.0,0.0,阿里山國小,嘉義縣,120.701672,23.469067
C1Z130,2022/10/30 19:20,187.0,-998.0,-998.0,-998.0,-998.0,1.5,12.0,4.5,銅門,花蓮縣,121.492842,23.965694
C0AD30,2022/10/30 19:20,20.0,-998.0,-998.0,-998.0,-998.0,0.0,0.0,0.0,蘆洲,新北市,121.472331,25.086594
C0D430,2022/10/30 19:20,87.0,-998.0,-998.0,-998.0,-998.0,0.0,0.0,0.0,峨眉,新竹縣,121.017189,24.6905
C0X210,2022/10/30 19:20,38.0,-998.0,-998.0,-998.0,-998.0,0.0,0.0,0.0,白河,臺南市,120.414428,23.347467
O1M640,2022/10/30 19:20,1052.0,-998.0,-998.0,-998.0,-998.0,0.0,0.0,0.0,豐山,嘉義縣,120.746747,23.574615
O1M650,2022/10/30 19:20,850.0,-998.0,-998.0,-998.0,-998.0,0.0,0.0,0.0,外來吉,嘉義縣,120.739968,23.529649
C0O960,2022/10/30 19:20,112.0,-998.0,-998.0,-998.0,-998.0,0.0,0.0,0.0,崎頂,臺南市,120.369317,22.959547
C1E511,2022/10/30 19:20,326.0,-998.0,-998.0,-998.0,-998.0,0.0,0.0,0.0,新開,苗栗縣,120.827019,24.347703
C1M400,2022/10/30 19:20,369.0,-998.0,-998.0,-998.0,-998.0,0.0,0.0,0.0,菜瓜坪,嘉義縣,120.57636,23.25163
01D110,2022/10/30 19:20,560.0,-998.0,-998.0,-998.0,-998.0,0.0,0.0,0.0,清泉,新竹縣,121.10352,24.573125
C1I400,2022/10/30 19:20,1399.0,-998.0,-998.0,-998.0,-998.0,0.0,0.0,0.0,凌霄,南投縣,121.004456,24.018778
C0I110,2022/10/30 19:20,161.0,-998.0,-998.0,-998.0,-998.0,0.0,0.0,0.0,竹山,南投縣,120.688156,23.761225
C0V370,2022/10/30 19:20,74.0,-998.0,-998.0,-998.0,-998.0,0.0,0.0,0.0,古亭坑,高雄市,120.401947,22.893178
C0M750,2022/10/30 19:20,10.0,-998.0,-998.0,-998.0,-998.0,0.0,0.0,0.0,布袋,嘉義縣,120.167778,23.380864
C1H941,2022/10/30 19:20,630.0,-998.0,-998.0,-998.0,-998.0,0.0,0.0,0.0,雙冬,南投縣,120.802189,23.967378
467410,2022/10/30 19:20,40.8,-998.0,-998.0,-998.0,-998.0,0.0,0.0,0.0,臺南,臺南市,120.20492,22.99328
C0F9X0,2022/10/30 19:20,166.0,-998.0,-998.0,-998.0,-998.0,0.0,0.0,0.0,大雅,臺中市,120.62445,24.215281
C0K590,2022/10/30 19:20,18.0,-998.0,-998.0,-998.0,-998.0,0.0,0.0,0.0,雲林東勢,雲林縣,120.255722,23.674194
467550,2022/10/30 19:20,3844.8,-998.0,-998.0,-998.0,-998.0,0.0,0.0,0.0,玉山,南投縣,120.95943,23.48718
G2P820,2022/10/30 19:20,37.0,-998.0,-998.0,-998.0,-998.0,0.0,0.0,0.0,農試鳳山分所,高雄市,120.356083,22.646611
C1V830,2022/10/30 19:20,114.0,-998.0,-998.0,-998.0,-998.0,0.0,0.0,0.0,國三S383K,高雄市,120.426475,22.781967
CAH010,2022/10/30 19:20,109.0,-998.0,-998.0,-998.0,-998.0,0.0,0.0,0.0,國三N223K,南投縣,120.662376,23.955116
E2P980,2022/10/30 19:20,272.0,-998.0,-998.0,-998.0,-998.0,0.0,0.0,0.0,林試六龜中心,高雄市,120.645722,22.991703
CAD030,2022/10/30 19:20,137.0,-998.0,-998.0,-998.0,-998.0,0.0,0.0,0.0,國一S082K,新竹縣,121.0467,24.87667
C0K510,2022/10/30 19:20,10.0,-998.0,-998.0,-998.0,-998.0,0.0,0.0,0.0,水林,雲林縣,120.245956,23.572911
C0M780,2022/10/30 19:20,30.0,-998.0,-998.0,-998.0,-998.0,0.0,0.0,0.0,鹿草,嘉義縣,120.308333,23.411322
01E370,2022/10/30 19:20,203.0,-998.0,-998.0,-998.0,-998.0,0.0,0.0,0.0,和興,苗栗縣,120.913109,24.528034
C0K530,2022/10/30 19:20,12.0,-998.0,-998.0,-998.0,-998.0,0.0,0.0,0.0,臺西,雲林縣,120.197547,23.701544
C0V750,2022/10/30 19:20,50.0,-998.0,-998.0,-998.0,-998.0,0.0,0.0,0.0,路竹,高雄市,120.259439,22.854997
01L910,2022/10/30 19:20,95.0,-998.0,-998.0,-998.0,-998.0,0.0,0.0,0.0,中坑(3),嘉義縣,120.520964,23.570458
81D760,2022/10/30 19:20,220.0,-998.0,-998.0,-998.0,-998.0,0.0,0.0,0.0,錦山國小,新竹縣,121.225244,24.769203
C0F9Q0,2022/10/30 19:20,149.0,-998.0,-998.0,-998.0,-998.0,0.0,0.0,0.0,外埔,臺中市,120.705686,24.347817
C0SA80,2022/10/30 19:20,136.0,-998.0,-998.0,-998.0,-998.0,0.0,0.0,0.0,土阪,臺東縣,120.887572,22.453108
C0X320,2022/10/30 19:20,33.0,-998.0,-998.0,-998.0,-998.0,0.0,0.0,0.0,柳營,臺南市,120.375253,23.253328
CAJ040,2022/10/30 19:20,14.0,-998.0,-998.0,-998.0,-998.0,0.0,0.0,0.0,西濱S241K,雲林縣,120.172646,23.623426
C1E451,2022/10/30 19:20,950.0,-998.0,-998.0,-998.0,-998.0,0.0,0.0,0.0,象鼻,苗栗縣,120.940228,24.368617
C0F0C0,2022/10/30 19:20,983.0,-998.0,-998.0,-998.0,-998.0,0.0,0.0,0.0,中坑,臺中市,120.903319,24.248517
C0F9Z0,2022/10/30 19:20,3193.0,-998.0,-998.0,-998.0,-998.0,0.0,0.0,0.0,雪山東峰,臺中市,121.268675,24.388792
C0D480,2022/10/30 19:20,223.0,-998.0,-998.0,-998.0,-998.0,0.0,0.0,0.0,打鐵坑,新竹縣,121.150789,24.849664
C1F9W0,2022/10/30 19:20,1970.0,-998.0,-998.0,-998.0,-998.0,0.0,0.0,0.0,德基,臺中市,121.190261,24.254783
C1I150,2022/10/30 19:20,393.0,-998.0,-998.0,-998.0,-998.0,0.0,0.0,0.0,青雲,南投縣,120.949378,23.793361
C1V190,2022/10/30 19:20,2700.0,-998.0,-998.0,-998.0,-998.0,0.0,0.0,0.0,南天池,高雄市,120.911764,23.274033
C0UA90,2022/10/30 19:20,5.0,-998.0,-998.0,-998.0,-998.0,0.5,1.0,1.0,石城,宜蘭縣,121.951214,24.980444
C0M790,2022/10/30 19:20,15.0,-998.0,-998.0,-998.0,-998.0,0.0,0.0,0.0,新港,嘉義縣,120.345719,23.553261
C0G780,2022/10/30 19:20,27.0,-998.0,-998.0,-998.0,-998.0,0.0,0.0,0.0,秀水,彰化縣,120.503869,24.03405
C1K540,2022/10/30 19:20,15.0,-998.0,-998.0,-998.0,-998.0,0.0,0.0,0.0,口湖,雲林縣,120.180517,23.585344
81S900,2022/10/30 19:20,328.0,-998.0,-998.0,-998.0,-998.0,0.0,0.0,0.0,加拿國小,臺東縣,121.130944,23.001003
C0F9R0,2022/10/30 19:20,20.0,-998.0,-998.0,-998.0,-998.0,0.0,0.0,0.0,龍井,臺中市,120.528972,24.184536
C1I290,2022/10/30 19:20,1151.0,-998.0,-998.0,-998.0,-998.0,0.0,0.0,0.0,豐丘,南投縣,120.887417,23.668178
C1T800,2022/10/30 19:20,1260.0,-998.0,-998.0,-998.0,-998.0,0.5,2.5,1.5,洛韶,花蓮縣,121.453956,24.204558
01O080,2022/10/30 19:20,86.0,-998.0,-998.0,-998.0,-998.0,0.0,0.0,0.0,六溪,臺南市,120.459288,23.309037
C0X120,2022/10/30 19:20,28.0,-998.0,-998.0,-998.0,-998.0,0.0,0.0,0.0,麻豆,臺南市,120.248611,23.183289
C0R670,2022/10/30 19:20,26.0,-998.0,-998.0,-998.0,-998.0,0.0,0.0,0.0,楓港,屏東縣,120.692156,22.190131
C0W110,2022/10/30 19:20,16.0,-998.0,-998.0,-998.0,-998.0,0.0,0.0,0.0,東莒,連江縣,119.980686,25.965197
81E720,2022/10/30 19:20,482.0,-998.0,-998.0,-998.0,-998.0,0.0,0.0,0.0,慈惠堂,苗栗縣,120.790278,24.4475
A0G720,2022/10/30 19:20,37.0,-998.0,-998.0,-998.0,-998.0,0.0,0.0,0.0,彰師大,彰化縣,120.556667,24.081389
C0K580,2022/10/30 19:20,26.0,-998.0,-998.0,-998.0,-998.0,0.0,0.0,0.0,高鐵雲林,雲林縣,120.417944,23.737456
00H710,2022/10/30 19:20,215.0,-998.0,-998.0,-998.0,-998.0,0.0,0.0,0.0,集集(2),南投縣,120.774892,23.826281
C0I490,2022/10/30 19:20,1601.0,-998.0,-998.0,-998.0,-998.0,0.0,0.0,0.0,萬大林道,南投縣,121.091411,23.928228
CAF020,2022/10/30 19:20,209.0,-998.0,-998.0,-998.0,-998.0,0.0,0.0,0.0,國一S162K,臺中市,120.695976,24.295534
01A210,2022/10/30 19:20,600.0,-998.0,-998.0,-998.0,-998.0,0.0,0.0,0.0,大豹,新北市,121.421373,24.887277
81F880,2022/10/30 19:20,482.0,-998.0,-998.0,-998.0,-998.0,0.0,0.0,0.0,中坑國小,臺中市,120.88,24.236389
C1E721,2022/10/30 19:20,1409.0,-998.0,-998.0,-998.0,-998.0,0.0,0.0,0.0,泰安,苗栗縣,120.968036,24.489017
C0G660,2022/10/30 19:20,27.0,-998.0,-998.0,-998.0,-998.0,0.0,0.0,0.0,溪湖,彰化縣,120.479122,23.94835
C0E750,2022/10/30 19:20,62.0,-998.0,-998.0,-998.0,-998.0,0.0,0.0,0.0,苗栗,苗栗縣,120.824575,24.564569
01S210,2022/10/30 19:20,173.0,-998.0,-998.0,-998.0,-998.0,0.0,0.0,0.0,知本(5),臺東縣,120.99909,22.690878
467490,2022/10/30 19:20,84.0,-998.0,-998.0,-998.0,-998.0,0.0,0.0,0.0,臺中,臺中市,120.684075,24.145736
01E060,2022/10/30 19:20,658.0,-998.0,-998.0,-998.0,-998.0,0.0,0.0,0.0,象鼻(1),苗栗縣,120.948417,24.36042
C0V610,2022/10/30 19:20,22.0,-998.0,-998.0,-998.0,-998.0,0.0,0.0,0.0,梓官,高雄市,120.267211,22.760558
CAE090,2022/10/30 19:20,89.0,-998.0,-998.0,-998.0,-998.0,0.0,0.0,0.0,國三S156K,苗栗縣,120.669487,24.39798
C0E610,2022/10/30 19:20,850.0,-998.0,-998.0,-998.0,-998.0,0.0,0.0,0.0,馬都安,苗栗縣,120.930192,24.451272
C1F9C1,2022/10/30 19:20,610.0,-998.0,-998.0,-998.0,-998.0,0.0,0.0,0.0,白冷,臺中市,120.929889,24.182844
81F910,2022/10/30 19:20,572.0,-998.0,-998.0,-998.0,-998.0,0.0,0.0,0.0,博屋瑪國小,臺中市,120.920278,24.333611
C0M720,2022/10/30 19:20,225.0,-998.0,-998.0,-998.0,-998.0,0.0,0.0,0.0,番路,嘉義縣,120.554144,23.464644
CAE100,2022/10/30 19:20,47.0,-998.0,-998.0,-998.0,-998.0,0.0,0.0,0.0,西濱N107K,苗栗縣,120.7394,24.5958
C0K420,2022/10/30 19:20,42.0,-998.0,-998.0,-998.0,-998.0,0.0,0.0,0.0,西螺,雲林縣,120.467383,23.8004
C0E590,2022/10/30 19:20,40.0,-998.0,-998.0,-998.0,-998.0,0.0,0.0,0.0,通霄,苗栗縣,120.704622,24.471892
CAP060,2022/10/30 19:20,93.0,-998.0,-998.0,-998.0,-998.0,0.5,0.5,0.5,國三S385K,高雄市,120.444444,22.767777
C0V820,2022/10/30 19:20,441.0,-998.0,-998.0,-998.0,-998.0,0.0,0.0,0.0,小林,高雄市,120.63325,23.14841
72N100,2022/10/30 19:20,41.0,-998.0,-998.0,-998.0,-998.0,0.0,0.0,0.0,臺南農改,臺南市,120.342194,23.0605
72S590,2022/10/30 19:20,290.0,-998.0,-998.0,-998.0,-998.0,0.0,1.5,0.0,東改賓朗果園,臺東縣,121.071278,22.813889
CAG070,2022/10/30 19:20,23.0,-998.0,-998.0,-998.0,-998.0,0.0,0.0,0.0,西濱S173K,彰化縣,120.434576,24.1081
CAF060,2022/10/30 19:20,117.0,-998.0,-998.0,-998.0,-998.0,0.0,0.0,0.0,國三S168K,臺中市,120.614471,24.308519
C0E910,2022/10/30 19:20,25.0,-998.0,-998.0,-998.0,-998.0,0.0,0.0,0.0,海埔,苗栗縣,120.772436,24.648769
81D640,2022/10/30 19:20,608.0,-998.0,-998.0,-998.0,-998.0,0.0,0.0,0.0,錦屏國小,新竹縣,121.246763,24.680365
CAD010,2022/10/30 19:20,36.0,-998.0,-998.0,-998.0,-998.0,0.0,0.0,0.0,國一S105K,新竹縣,120.940643,24.726316
72G600,2022/10/30 19:20,19.0,-998.0,-998.0,-998.0,-998.0,0.0,0.0,0.0,臺中農改,彰化縣,120.534389,24.003028
81S920,2022/10/30 19:20,135.0,-998.0,-998.0,-998.0,-998.0,0.0,0.5,0.0,金峰鄉公所,臺東縣,120.960944,22.598647
CAD050,2022/10/30 19:20,75.0,-998.0,-998.0,-998.0,-998.0,0.0,0.0,0.0,國一N094K,新竹市,121.0089,24.79778
C1M640,2022/10/30 19:20,1567.0,-998.0,-998.0,-998.0,-998.0,0.0,0.0,0.0,十字,嘉義縣,120.753683,23.492153
01P500,2022/10/30 19:20,21.0,-998.0,-998.0,-998.0,-998.0,0.0,0.0,0.0,阿蓮(2),高雄市,120.327203,22.876332
CAL080,2022/10/30 19:20,72.0,-998.0,-998.0,-998.0,-998.0,0.0,0.0,0.0,國三N303K,嘉義縣,120.452447,23.411969
O1I360,2022/10/30 19:20,2600.0,-998.0,-998.0,-998.0,-998.0,0.0,0.0,0.0,楠溪,南投縣,120.907956,23.472849
81H920,2022/10/30 19:20,804.0,-998.0,-998.0,-998.0,-998.0,0.0,0.0,0.0,德化國小,南投縣,120.935333,23.84869
01G090,2022/10/30 19:20,7.0,-998.0,-998.0,-998.0,-998.0,0.0,0.0,0.0,頭汴,彰化縣,120.484036,24.085275
C0G860,2022/10/30 19:20,45.0,-998.0,-998.0,-998.0,-998.0,0.0,0.0,0.0,社頭,彰化縣,120.5862,23.897647
C0X250,2022/10/30 19:20,33.0,-998.0,-998.0,-998.0,-998.0,0.0,0.0,0.0,新營,臺南市,120.316681,23.310694
01R030,2022/10/30 19:20,1080.0,-998.0,-998.0,-998.0,-998.0,0.0,0.0,0.0,大漢山,屏東縣,120.683098,22.419298
C0D590,2022/10/30 19:20,143.0,-998.0,-998.0,-998.0,-998.0,0.0,0.0,0.0,新豐,新竹縣,120.977211,24.870678
C1O940,2022/10/30 19:20,55.0,-998.0,-998.0,-998.0,-998.0,0.0,0.0,0.0,東山服務區,臺南市,120.390378,23.286017
C0E870,2022/10/30 19:20,34.0,-998.0,-998.0,-998.0,-998.0,0.0,0.0,0.0,高鐵苗栗,苗栗縣,120.826094,24.60725
C0M800,2022/10/30 19:20,440.0,-998.0,-998.0,-998.0,-998.0,0.0,0.0,0.0,茶山,嘉義縣,120.664767,23.299075
CAJ030,2022/10/30 19:20,31.0,-998.0,-998.0,-998.0,-998.0,0.0,0.0,0.0,西濱N222K,雲林縣,120.256132,23.737734
C1R120,2022/10/30 19:20,820.0,-998.0,-998.0,-998.0,-998.0,0.0,0.0,0.0,上德文,屏東縣,120.704442,22.763272
81H940,2022/10/30 19:20,460.0,-998.0,-998.0,-998.0,-998.0,0.0,0.0,0.0,人和國小,南投縣,120.896691,23.77896
C0V810,2022/10/30 19:20,32.0,-998.0,-998.0,-998.0,-998.0,0.0,0.0,0.0,左營,高雄市,120.284911,22.674911
C1SA50,2022/10/30 19:20,1235.0,-998.0,-998.0,-998.0,-998.0,0.0,6.5,0.0,利嘉林道,臺東縣,121.009389,22.82325
81AI00,2022/10/30 19:20,172.0,-998.0,-998.0,-998.0,-998.0,0.0,0.0,0.0,五寮國小,新北市,121.36,24.858889
C0V770,2022/10/30 19:20,26.0,-998.0,-998.0,-998.0,-998.0,0.0,0.0,0.0,大社,高雄市,120.346639,22.730306
O1V510,2022/10/30 19:20,1067.0,-998.0,-998.0,-998.0,-998.0,0.0,0.0,0.0,寶山,高雄市,120.708888,23.036624
C1O850,2022/10/30 19:20,44.0,-998.0,-998.0,-998.0,-998.0,0.0,0.0,0.0,環湖,臺南市,120.418633,23.148617
21U110,2022/10/30 19:20,1150.0,-998.0,-998.0,-998.0,-998.0,0.0,0.0,0.0,池端,宜蘭縣,121.474881,24.631499
C0S660,2022/10/30 19:20,794.0,-998.0,-998.0,-998.0,-998.0,0.0,0.5,0.0,下馬,臺東縣,121.070025,23.150194
C1D400,2022/10/30 19:20,839.0,-998.0,-998.0,-998.0,-998.0,0.0,0.0,0.0,鳥嘴山,新竹縣,121.283872,24.719092
CAP020,2022/10/30 19:20,24.0,-998.0,-998.0,-998.0,-998.0,0.0,0.0,0.0,國一S346K,高雄市,120.314166,22.812222
C0G900,2022/10/30 19:20,20.0,-998.0,-998.0,-998.0,-998.0,0.0,0.0,0.0,線西,彰化縣,120.443536,24.143358
81F900,2022/10/30 19:20,143.0,-998.0,-998.0,-998.0,-998.0,0.0,0.0,0.0,峰谷國小,臺中市,120.724444,24.035278
C0D670,2022/10/30 19:20,23.0,-998.0,-998.0,-998.0,-998.0,0.0,0.0,0.0,海天一線,新竹市,120.914439,24.831989
CAG090,2022/10/30 19:20,48.0,-998.0,-998.0,-998.0,-998.0,0.0,0.0,0.0,西濱N210K,彰化縣,120.293236,23.843536
CAN040,2022/10/30 19:20,33.0,-998.0,-998.0,-998.0,-998.0,0.0,0.0,0.0,國一N323K,臺南市,120.249453,23.011789
01L490,2022/10/30 19:20,78.0,-998.0,-998.0,-998.0,-998.0,0.0,0.0,0.0,沙坑,嘉義縣,120.520569,23.530321
C0E810,2022/10/30 19:20,53.0,-998.0,-998.0,-998.0,-998.0,0.0,0.0,0.0,西湖,苗栗縣,120.7485,24.562947
C0D580,2022/10/30 19:20,120.0,-998.0,-998.0,-998.0,-998.0,0.0,0.0,0.0,寶山,新竹縣,121.025192,24.735006
C0M660,2022/10/30 19:20,40.0,-998.0,-998.0,-998.0,-998.0,0.0,0.0,0.0,溪口,嘉義縣,120.403556,23.604119
81K580,2022/10/30 19:20,305.0,-998.0,-998.0,-998.0,-998.0,0.0,0.0,0.0,坪頂,雲林縣,120.639013,23.75386
C1F891,2022/10/30 19:20,2205.0,-998.0,-998.0,-998.0,-998.0,0.0,0.0,0.0,稍來,臺中市,121.001142,24.265689
C0X290,2022/10/30 19:20,10.0,-998.0,-998.0,-998.0,-998.0,0.0,0.0,0.0,北門,臺南市,120.125481,23.267772
C0H9C0,2022/10/30 19:20,3402.0,-998.0,-998.0,-998.0,-998.0,0.0,0.0,0.0,合歡山頂,南投縣,121.272547,24.143442
81D660,2022/10/30 19:20,489.0,-998.0,-998.0,-998.0,-998.0,0.0,0.0,0.0,花園派出所,新竹縣,121.151106,24.646103
C0V650,2022/10/30 19:20,28.0,-998.0,-998.0,-998.0,-998.0,0.0,0.0,0.0,彌陀,高雄市,120.246361,22.783806
CAJ020,2022/10/30 19:20,50.0,-998.0,-998.0,-998.0,-998.0,0.0,0.0,0.0,國一N234K,雲林縣,120.467926,23.74633
81H960,2022/10/30 19:20,363.0,-998.0,-998.0,-998.0,-998.0,0.0,0.0,0.0,北港國小,南投縣,120.911322,24.056661
CAL020,2022/10/30 19:20,43.0,-998.0,-998.0,-998.0,-998.0,0.0,0.0,0.0,國一S262K,嘉義縣,120.403038,23.512333
01S610,2022/10/30 19:20,31.0,-998.0,-998.0,-998.0,-998.0,0.0,0.0,0.0,台東(7),臺東縣,121.158652,22.753496
C1N001,2022/10/30 19:20,24.0,-998.0,-998.0,-998.0,-998.0,0.0,0.0,0.0,沙崙,臺南市,120.309406,22.935472
C1F9B1,2022/10/30 19:20,130.0,-998.0,-998.0,-998.0,-998.0,0.0,0.0,0.0,桐林,臺中市,120.735194,24.066172
C0SA40,2022/10/30 19:20,200.0,-998.0,-998.0,-998.0,-998.0,0.0,0.0,0.0,瑞和,臺東縣,121.156697,22.974361
C0V440,2022/10/30 19:20,27.0,-998.0,-998.0,-998.0,-998.0,0.0,0.0,0.0,鳳山,高雄市,120.356122,22.646653
81F890,2022/10/30 19:20,226.0,-998.0,-998.0,-998.0,-998.0,0.0,0.0,0.0,坪廓分校,臺中市,120.756667,24.156667
C0X230,2022/10/30 19:20,29.0,-998.0,-998.0,-998.0,-998.0,0.0,0.0,0.0,鹽水,臺南市,120.247622,23.272603
C0H890,2022/10/30 19:20,440.0,-998.0,-998.0,-998.0,-998.0,0.0,0.0,0.0,埔里,南投縣,120.952425,23.972169
01E030,2022/10/30 19:20,550.0,-998.0,-998.0,-998.0,-998.0,0.0,0.0,0.0,橫龍山,苗栗縣,120.968785,24.469909
88K590,2022/10/30 19:20,393.0,-998.0,-998.0,-998.0,-998.0,0.0,0.0,0.0,華山,雲林縣,120.596944,23.595278
C1M480,2022/10/30 19:20,840.0,-998.0,-998.0,-998.0,-998.0,0.0,0.0,0.0,獨立山,嘉義縣,120.607797,23.537022
01E240,2022/10/30 19:20,45.0,-998.0,-998.0,-998.0,-998.0,0.0,0.0,0.0,珊珠湖,苗栗縣,120.960275,24.687014
01D310,2022/10/30 19:20,55.0,-998.0,-998.0,-998.0,-998.0,0.0,0.0,0.0,新埔(1),新竹縣,121.071412,24.829422
C0C460,2022/10/30 19:20,482.0,-998.0,-998.0,-998.0,-998.0,0.0,0.0,0.0,復興,桃園市,121.352281,24.820208
01E310,2022/10/30 19:20,95.0,-998.0,-998.0,-998.0,-998.0,0.0,0.0,0.0,南勢山,苗栗縣,120.735306,24.588003
C1I440,2022/10/30 19:20,2540.0,-998.0,-998.0,-998.0,-998.0,0.0,0.0,0.0,新高口,南投縣,120.878939,23.478744
O1J810,2022/10/30 19:20,9.0,-998.0,-998.0,-998.0,-998.0,0.0,0.0,0.0,北港(2),雲林縣,120.301903,23.577934
C1G9D0,2022/10/30 19:20,30.0,-998.0,-998.0,-998.0,-998.0,0.0,0.0,0.0,國一S218K,彰化縣,120.485117,23.890642
C1H920,2022/10/30 19:20,736.0,-998.0,-998.0,-998.0,-998.0,0.0,0.0,0.0,長豐,南投縣,120.879897,24.102039
01S130,2022/10/30 19:20,288.0,-998.0,-998.0,-998.0,-998.0,0.0,1.0,0.0,武陵,臺東縣,121.11534,22.969742
C1I030,2022/10/30 19:20,948.0,-998.0,-998.0,-998.0,-998.0,0.0,0.0,0.0,武界,南投縣,121.052483,23.913225
C0I010,2022/10/30 19:20,1562.0,-998.0,-998.0,-998.0,-998.0,0.0,0.0,0.0,廬山,南投縣,121.181808,24.033311
21C050,2022/10/30 19:20,255.0,-998.0,-998.0,-998.0,-998.0,0.0,0.0,0.0,石門,桃園市,121.248473,24.809322
C0X180,2022/10/30 19:20,62.0,-998.0,-998.0,-998.0,-998.0,0.0,0.0,0.0,山上,臺南市,120.363253,23.0757
88H890,2022/10/30 19:20,791.0,-998.0,-998.0,-998.0,-998.0,0.0,0.0,0.0,南豐,南投縣,121.088627,24.017338
C0X260,2022/10/30 19:20,39.0,-998.0,-998.0,-998.0,-998.0,0.0,0.0,0.0,後壁,臺南市,120.362306,23.366342
CAL070,2022/10/30 19:20,99.0,-998.0,-998.0,-998.0,-998.0,0.0,0.0,0.0,國三N295K,嘉義市,120.499369,23.468598
CAD110,2022/10/30 19:20,17.0,-998.0,-998.0,-998.0,-998.0,0.0,0.0,0.0,西濱S082K,新竹市,120.905028,24.751724
CAF010,2022/10/30 19:20,150.0,-998.0,-998.0,-998.0,-998.0,0.0,0.0,0.0,國一N174K,臺中市,120.6552,24.2049
01H110,2022/10/30 19:20,231.0,-998.0,-998.0,-998.0,-998.0,0.0,0.0,0.0,桶頭(2),南投縣,120.657625,23.644646
81S890,2022/10/30 19:20,201.0,-998.0,-998.0,-998.0,-998.0,0.0,0.0,0.0,初鹿國中,臺東縣,121.092326,22.849954
A2K360,2022/10/30 19:20,1.0,-998.0,-998.0,-998.0,-998.0,0.0,0.0,0.0,水試臺西試驗,雲林縣,120.190522,23.717231
C0K550,2022/10/30 19:20,15.0,-998.0,-998.0,-998.0,-998.0,0.0,0.0,0.0,蔦松,雲林縣,120.229736,23.514319
C0A980,2022/10/30 19:20,11.0,-998.0,-998.0,-998.0,-998.0,0.0,0.0,0.0,社子,臺北市,121.469681,25.109508
467650,2022/10/30 19:20,1014.8,-998.0,-998.0,-998.0,-998.0,0.0,0.0,0.0,日月潭,南投縣,120.90805,23.881325
E2H360,2022/10/30 19:20,681.0,-998.0,-998.0,-998.0,-998.0,0.0,0.0,0.0,蓮華池,南投縣,120.885278,23.918333
C0G730,2022/10/30 19:20,27.0,-998.0,-998.0,-998.0,-998.0,0.0,0.0,0.0,二林,彰化縣,120.376069,23.903319
01Q610,2022/10/30 19:20,144.0,-998.0,-998.0,-998.0,-998.0,0.0,0.0,0.0,古夏,屏東縣,120.64444,22.76625
01R040,2022/10/30 19:20,410.0,-998.0,-998.0,-998.0,-998.0,0.0,0.0,0.0,士文,屏東縣,120.663618,22.368323
01E080,2022/10/30 19:20,1308.0,-998.0,-998.0,-998.0,-998.0,0.0,0.0,0.0,松安,苗栗縣,120.986018,24.397796
C0D660,2022/10/30 19:20,65.0,-998.0,-998.0,-998.0,-998.0,0.0,0.0,0.0,新竹市東區,新竹市,120.986942,24.798681
C1E711,2022/10/30 19:20,990.0,-998.0,-998.0,-998.0,-998.0,0.0,0.0,0.0,馬拉邦山,苗栗縣,120.901656,24.367306
C0G810,2022/10/30 19:20,26.0,-998.0,-998.0,-998.0,-998.0,0.0,0.0,0.0,埔心,彰化縣,120.525456,23.947633
C0I410,2022/10/30 19:20,180.0,-998.0,-998.0,-998.0,-998.0,0.0,0.0,0.0,名間,南投縣,120.701447,23.837053
C1I240,2022/10/30 19:20,725.0,-998.0,-998.0,-998.0,-998.0,0.0,0.0,0.0,外大坪,南投縣,120.917931,23.958697
CAL040,2022/10/30 19:20,39.0,-998.0,-998.0,-998.0,-998.0,0.0,0.0,0.0,國一N273K,嘉義縣,120.355,23.416666
01F350,2022/10/30 19:20,2575.0,-998.0,-998.0,-998.0,-998.0,0.0,0.0,0.0,雪嶺,臺中市,121.02549,24.279567
C0R140,2022/10/30 19:20,740.0,-998.0,-998.0,-998.0,-998.0,0.0,0.0,0.0,瑪家,屏東縣,120.686639,22.682903
C1S860,2022/10/30 19:20,516.0,-998.0,-998.0,-998.0,-998.0,0.0,1.0,0.0,利嘉,臺東縣,121.050528,22.809417
C0D680,2022/10/30 19:20,24.0,-998.0,-998.0,-998.0,-998.0,0.0,0.0,0.0,香山濕地,新竹市,120.914989,24.783583
C1I330,2022/10/30 19:20,1266.0,-998.0,-998.0,-998.0,-998.0,0.0,0.0,0.0,楓樹林,南投縣,121.076117,23.986803
CAN100,2022/10/30 19:20,64.0,-998.0,-998.0,-998.0,-998.0,0.0,0.0,0.0,國三S366K,臺南市,120.3513,22.9077
C0K410,2022/10/30 19:20,20.0,-998.0,-998.0,-998.0,-998.0,0.0,0.0,0.0,北港,雲林縣,120.291786,23.574056
01H630,2022/10/30 19:20,99.0,-998.0,-998.0,-998.0,-998.0,0.0,0.0,0.0,草屯(4),南投縣,120.678996,23.972525
C1F9D1,2022/10/30 19:20,639.0,-998.0,-998.0,-998.0,-998.0,0.0,0.0,0.0,白毛台,臺中市,120.886933,24.158325
467300,2022/10/30 19:20,44.5,-998.0,-998.0,-998.0,-998.0,0.0,0.0,0.0,東吉島,澎湖縣,119.66762,23.25727
C0F9K0,2022/10/30 19:20,30.0,-998.0,-998.0,-998.0,-998.0,0.0,0.0,0.0,大安,臺中市,120.588025,24.345061
C1H900,2022/10/30 19:20,934.0,-998.0,-998.0,-998.0,-998.0,0.0,0.0,0.0,清流,南投縣,120.962997,24.080775
O1D580,2022/10/30 19:20,58.0,-998.0,-998.0,-998.0,-998.0,0.0,0.0,0.0,內湖國小,新竹市,120.906944,24.742156
B2E890,2022/10/30 19:20,90.0,-998.0,-998.0,-998.0,-998.0,0.0,0.0,0.0,畜試北區分所,苗栗縣,120.770972,24.527806
G2F820,2022/10/30 19:20,90.0,-998.0,-998.0,-998.0,-998.0,0.0,0.0,0.0,農業試驗所,臺中市,120.688133,24.031261
01J960,2022/10/30 19:20,205.0,-998.0,-998.0,-998.0,-998.0,0.0,0.0,0.0,大埔,雲林縣,120.615417,23.630394
01P280,2022/10/30 19:20,80.0,-998.0,-998.0,-998.0,-998.0,0.0,0.0,0.0,古亭坑,高雄市,120.404543,22.892785
CAE040,2022/10/30 19:20,97.0,-998.0,-998.0,-998.0,-998.0,0.0,0.0,0.0,國一S132K,苗栗縣,120.820831,24.524506
C0X080,2022/10/30 19:20,2.0,-998.0,-998.0,-998.0,-998.0,0.0,0.0,0.0,佳里,臺南市,120.145086,23.173039
E2K600,2022/10/30 19:20,11.0,-998.0,-998.0,-998.0,-998.0,0.0,0.0,0.0,四湖植物園,雲林縣,120.163433,23.676986
C0V700,2022/10/30 19:20,24.0,-998.0,-998.0,-998.0,-998.0,0.0,0.0,0.0,三民,高雄市,120.311233,22.645017
C0O900,2022/10/30 19:20,9.0,-998.0,-998.0,-998.0,-998.0,0.0,0.0,0.0,善化,臺南市,120.297219,23.112883
01O200,2022/10/30 19:20,360.0,-998.0,-998.0,-998.0,-998.0,0.0,0.0,0.0,北寮,臺南市,120.496384,23.290374
467270,2022/10/30 19:20,42.2,-998.0,-998.0,-998.0,-998.0,0.0,0.0,0.0,田中,彰化縣,120.581286,23.873803
88S950,2022/10/30 19:20,25.0,-998.0,-998.0,-998.0,-998.0,0.0,0.5,0.0,大鳥,臺東縣,120.910278,22.383056
CAL110,2022/10/30 19:20,1.1,-998.0,-998.0,-998.0,-998.0,0.0,0.0,0.0,布袋國中,嘉義縣,120.18026,23.35893
CAN020,2022/10/30 19:20,27.0,-998.0,-998.0,-998.0,-998.0,0.0,0.0,0.0,國一S306K,臺南市,120.230558,23.152831
C0O980,2022/10/30 19:20,18.0,-998.0,-998.0,-998.0,-998.0,0.0,0.0,0.0,新市,臺南市,120.298197,23.061614
C0O840,2022/10/30 19:20,134.0,-998.0,-998.0,-998.0,-998.0,0.0,0.0,0.0,王爺宮,臺南市,120.40085,23.222064
C1X040,2022/10/30 19:20,232.0,-998.0,-998.0,-998.0,-998.0,0.0,0.0,0.0,東原,臺南市,120.463822,23.291597
C0M820,2022/10/30 19:20,980.0,-998.0,-998.0,-998.0,-998.0,0.0,0.0,0.0,達邦,嘉義縣,120.749517,23.453994
01H390,2022/10/30 19:20,2200.0,-998.0,-998.0,-998.0,-998.0,0.0,0.0,0.0,望鄉,南投縣,120.927817,23.619266
C0F9S0,2022/10/30 19:20,43.0,-998.0,-998.0,-998.0,-998.0,0.0,0.0,0.0,烏日,臺中市,120.624103,24.107058
01H400,2022/10/30 19:20,1135.0,-998.0,-998.0,-998.0,-998.0,0.0,0.0,0.0,東埔,南投縣,120.928349,23.561831
O1F390,2022/10/30 19:20,543.0,-998.0,-998.0,-998.0,-998.0,0.0,0.0,0.0,雙崎(2),臺中市,120.910107,24.292326
C0F9L0,2022/10/30 19:20,253.0,-998.0,-998.0,-998.0,-998.0,0.0,0.0,0.0,后里,臺中市,120.729725,24.310436
21D150,2022/10/30 19:20,780.0,-998.0,-998.0,-998.0,-998.0,0.0,0.0,0.0,玉峰,新竹縣,121.308185,24.664908
C0V530,2022/10/30 19:20,34.0,-998.0,-998.0,-998.0,-998.0,0.0,0.0,0.0,阿蓮,高雄市,120.327508,22.883208
C1E900,2022/10/30 19:20,80.0,-998.0,-998.0,-998.0,-998.0,0.0,0.0,0.0,國一N128K,苗栗縣,120.836,24.560997
01G240,2022/10/30 19:20,11.0,-998.0,-998.0,-998.0,-998.0,0.0,0.0,0.0,萬興(2),彰化縣,120.416991,23.955381
12J990,2022/10/30 19:20,10.0,-998.0,-998.0,-998.0,-998.0,0.0,0.0,0.0,口湖工作站,雲林縣,120.180394,23.589978
A0Z080,2022/10/30 19:20,3171.0,-998.0,-998.0,-998.0,-998.0,0.0,0.0,0.0,合歡山,花蓮縣,121.284231,24.143186
CAH020,2022/10/30 19:20,93.0,-998.0,-998.0,-998.0,-998.0,0.0,0.0,0.0,國三S217K,南投縣,120.653214,24.00683
O1S650,2022/10/30 19:20,130.0,-998.0,-998.0,-998.0,-998.0,0.0,0.0,0.0,利吉國小,臺東縣,121.139022,22.838676
C1V160,2022/10/30 19:20,1040.0,-998.0,-998.0,-998.0,-998.0,0.0,0.0,0.0,達卡努瓦,高雄市,120.705319,23.279811
C1I070,2022/10/30 19:20,825.0,-998.0,-998.0,-998.0,-998.0,0.0,0.0,0.0,和社,南投縣,120.888861,23.591131
C1R110,2022/10/30 19:20,110.0,-998.0,-998.0,-998.0,-998.0,0.0,0.0,0.0,口社,屏東縣,120.645222,22.770111
C0K450,2022/10/30 19:20,35.0,-998.0,-998.0,-998.0,-998.0,0.0,0.0,0.0,大埤,雲林縣,120.431525,23.646064
C0E820,2022/10/30 19:20,220.0,-998.0,-998.0,-998.0,-998.0,0.0,0.0,0.0,獅潭,苗栗縣,120.920042,24.539133
CAE030,2022/10/30 19:20,76.0,-998.0,-998.0,-998.0,-998.0,0.0,0.0,0.0,國一S123K,苗栗縣,120.86071,24.59594
01J970,2022/10/30 19:20,724.0,-998.0,-998.0,-998.0,-998.0,0.0,0.0,0.0,草嶺(2),雲林縣,120.695634,23.584167
C1M390,2022/10/30 19:20,1090.0,-998.0,-998.0,-998.0,-998.0,0.0,0.0,0.0,龍美,嘉義縣,120.654417,23.406728
C1M870,2022/10/30 19:20,121.0,-998.0,-998.0,-998.0,-998.0,0.0,0.0,0.0,國三N285K,嘉義縣,120.505833,23.550319
C1D420,2022/10/30 19:20,1279.0,-998.0,-998.0,-998.0,-998.0,0.0,0.0,0.0,太閣南,新竹縣,121.160575,24.632808
CAW010,2022/10/30 19:20,42.0,-998.0,-998.0,-998.0,-998.0,0.0,0.0,0.0,東引,連江縣,120.483631,26.358836
C0V210,2022/10/30 19:20,734.0,-998.0,-998.0,-998.0,-998.0,0.0,0.0,0.0,復興,高雄市,120.806089,23.222403
C1H971,2022/10/30 19:20,428.0,-998.0,-998.0,-998.0,-998.0,0.0,0.0,0.0,六分寮,南投縣,120.637797,23.925069
C1M610,2022/10/30 19:20,1083.0,-998.0,-998.0,-998.0,-998.0,0.0,0.0,0.0,石磐龍,嘉義縣,120.663506,23.496606
82S580,2022/10/30 19:20,175.0,-998.0,-998.0,-998.0,-998.0,0.0,1.0,0.0,茶改東部分場,臺東縣,121.130139,22.907694
C0F9I0,2022/10/30 19:20,194.0,-998.0,-998.0,-998.0,-998.0,0.0,0.0,0.0,神岡,臺中市,120.658314,24.272481
C1I211,2022/10/30 19:20,529.0,-998.0,-998.0,-998.0,-998.0,0.0,0.0,0.0,蘆竹湳,南投縣,120.811994,23.934019
82H320,2022/10/30 19:20,850.0,-998.0,-998.0,-998.0,-998.0,0.0,0.0,0.0,茶改中部分場,南投縣,120.913583,23.875611
01E390,2022/10/30 19:20,30.0,-998.0,-998.0,-998.0,-998.0,0.0,0.0,0.0,大潭,苗栗縣,120.820796,24.635269
C0X190,2022/10/30 19:20,10.0,-998.0,-998.0,-998.0,-998.0,0.0,0.0,0.0,安平,臺南市,120.152181,22.993161
C1F9E1,2022/10/30 19:20,563.0,-998.0,-998.0,-998.0,-998.0,0.0,0.0,0.0,龍安,臺中市,120.831961,24.1605
467480,2022/10/30 19:20,26.9,-998.0,-998.0,-998.0,-998.0,0.0,0.0,0.0,嘉義,嘉義市,120.432906,23.495925
C0M730,2022/10/30 19:20,40.0,-998.0,-998.0,-998.0,-998.0,0.0,0.0,0.0,嘉義市東區,嘉義市,120.460517,23.457656
CAD080,2022/10/30 19:20,182.0,-998.0,-998.0,-998.0,-998.0,0.0,0.0,0.0,國三N085K,新竹縣,121.1211,24.78333
O1V550,2022/10/30 19:20,454.3,-998.0,-998.0,-998.0,-998.0,0.0,0.0,0.0,多納(1),高雄市,120.716048,22.910218
01P660,2022/10/30 19:20,355.0,-998.0,-998.0,-998.0,-998.0,0.0,0.0,0.0,甲仙(2),高雄市,120.58767,23.083884
CAL010,2022/10/30 19:20,46.0,-998.0,-998.0,-998.0,-998.0,0.0,0.0,0.0,國一N250K,嘉義縣,120.436867,23.610292
C0E550,2022/10/30 19:20,84.0,-998.0,-998.0,-998.0,-998.0,0.0,0.0,0.0,明德,苗栗縣,120.885411,24.583486
01H310,2022/10/30 19:20,2303.0,-998.0,-998.0,-998.0,-998.0,0.0,0.0,0.0,翠峰,南投縣,121.199288,24.106999
CAN080,2022/10/30 19:20,49.0,-998.0,-998.0,-998.0,-998.0,0.0,0.0,0.0,國三N336K,臺南市,120.345,23.154722
C1E770,2022/10/30 19:20,83.0,-998.0,-998.0,-998.0,-998.0,0.0,0.0,0.0,公館,苗栗縣,120.830806,24.526914
G2L020,2022/10/30 19:20,79.0,-998.0,-998.0,-998.0,-998.0,0.0,0.0,0.0,農試嘉義分所,嘉義市,120.473806,23.485028
01D190,2022/10/30 19:20,770.0,-998.0,-998.0,-998.0,-998.0,0.0,0.0,0.0,鳥嘴山,新竹縣,121.28372,24.719164
CAN090,2022/10/30 19:20,41.0,-998.0,-998.0,-998.0,-998.0,0.0,0.0,0.0,國三S342K,臺南市,120.327528,23.106694
CAG060,2022/10/30 19:20,48.0,-998.0,-998.0,-998.0,-998.0,0.0,0.0,0.0,國三S202K,彰化縣,120.603256,24.092468
C0F9N0,2022/10/30 19:20,75.0,-998.0,-998.0,-998.0,-998.0,0.0,0.0,0.0,大里,臺中市,120.701378,24.092464
81I560,2022/10/30 19:20,613.0,-998.0,-998.0,-998.0,-998.0,0.0,0.0,0.0,豐丘,南投縣,120.876961,23.667997
C0M680,2022/10/30 19:20,37.0,-998.0,-998.0,-998.0,-998.0,0.0,0.0,0.0,太保,嘉義縣,120.331439,23.455047
C0UA80,2022/10/30 19:20,10.0,-998.0,-998.0,-998.0,-998.0,0.0,0.0,0.0,大溪漁港,宜蘭縣,121.902956,24.941803
C0F9P0,2022/10/30 19:20,26.0,-998.0,-998.0,-998.0,-998.0,0.0,0.0,0.0,清水,臺中市,120.562242,24.312297
01V060,2022/10/30 19:20,850.0,-998.0,-998.0,-998.0,-998.0,0.0,0.0,0.0,梅山(2),高雄市,120.824866,23.265549
81I520,2022/10/30 19:20,527.0,-998.0,-998.0,-998.0,-998.0,0.0,0.0,0.0,九份二山,南投縣,120.854392,23.949895
81HA60,2022/10/30 19:20,120.0,-998.0,-998.0,-998.0,-998.0,0.0,0.0,0.0,中興新村,南投縣,120.686389,23.959722
C0O970,2022/10/30 19:20,71.0,-998.0,-998.0,-998.0,-998.0,0.0,0.0,0.0,虎頭埤,臺南市,120.347878,23.021375
C0F0B0,2022/10/30 19:20,311.0,-998.0,-998.0,-998.0,-998.0,0.0,0.0,0.0,石岡,臺中市,120.777644,24.276061
C1V220,2022/10/30 19:20,1781.0,-998.0,-998.0,-998.0,-998.0,0.0,0.0,0.0,小關山,高雄市,120.813603,23.154217
C1S820,2022/10/30 19:20,177.0,-998.0,-998.0,-998.0,-998.0,0.0,0.5,0.0,金峰,臺東縣,120.933236,22.590969
C0M740,2022/10/30 19:20,15.0,-998.0,-998.0,-998.0,-998.0,0.0,0.0,0.0,六腳,嘉義縣,120.290611,23.492864
C0K460,2022/10/30 19:20,60.0,-998.0,-998.0,-998.0,-998.0,0.0,0.0,0.0,斗南,雲林縣,120.478347,23.678725
C0X100,2022/10/30 19:20,10.0,-998.0,-998.0,-998.0,-998.0,0.0,0.0,0.0,臺南市北區,臺南市,120.194228,23.010394
01Q920,2022/10/30 19:20,750.0,-998.0,-998.0,-998.0,-998.0,0.0,0.0,0.0,新瑪家,屏東縣,120.686784,22.675384
C1I510,2022/10/30 19:20,1208.0,-998.0,-998.0,-998.0,-998.0,0.0,0.0,0.0,線浸林道,南投縣,120.832956,23.761508
81D650,2022/10/30 19:20,268.0,-998.0,-998.0,-998.0,-998.0,0.0,0.0,0.0,內灣國小,新竹縣,121.183143,24.705412
C0X130,2022/10/30 19:20,27.0,-998.0,-998.0,-998.0,-998.0,0.0,0.0,0.0,官田,臺南市,120.315422,23.193217
C0V400,2022/10/30 19:20,56.0,-998.0,-998.0,-998.0,-998.0,0.0,0.0,0.0,阿公店,高雄市,120.355528,22.804194
C1E890,2022/10/30 19:20,53.0,-998.0,-998.0,-998.0,-998.0,0.0,0.0,0.0,國三N149K,苗栗縣,120.680019,24.463414
C0G720,2022/10/30 19:20,50.0,-998.0,-998.0,-998.0,-998.0,0.0,0.0,0.0,溪州,彰化縣,120.499083,23.851597
01H210,2022/10/30 19:20,1590.0,-998.0,-998.0,-998.0,-998.0,0.0,0.0,0.0,翠巒,南投縣,121.203514,24.182576
C1V170,2022/10/30 19:20,3690.0,-998.0,-998.0,-998.0,-998.0,0.0,0.0,0.0,排雲,高雄市,120.954147,23.463619
C0FA30,2022/10/30 19:20,31.7,-998.0,-998.0,-998.0,-998.0,0.0,0.0,0.0,梧棲,臺中市,120.523381,24.256003
C0X280,2022/10/30 19:20,22.0,-998.0,-998.0,-998.0,-998.0,0.0,0.0,0.0,將軍,臺南市,120.135761,23.214972
81D670,2022/10/30 19:20,110.0,-998.0,-998.0,-998.0,-998.0,0.0,0.0,0.0,田埔分校,新竹縣,121.278611,24.641389
C1E461,2022/10/30 19:20,1325.0,-998.0,-998.0,-998.0,-998.0,0.0,0.0,0.0,松安,苗栗縣,120.986022,24.397972
C0V620,2022/10/30 19:20,18.0,-998.0,-998.0,-998.0,-998.0,0.0,0.0,0.0,永安,高雄市,120.236856,22.82315
72S200,2022/10/30 19:20,240.0,-998.0,-998.0,-998.0,-998.0,0.0,1.5,0.0,東改班鳩分場,臺東縣,121.077694,22.829528
C0H960,2022/10/30 19:20,120.0,-998.0,-998.0,-998.0,-998.0,0.0,0.0,0.0,草屯,南投縣,120.68085,23.973672
72M360,2022/10/30 19:20,6.0,-998.0,-998.0,-998.0,-998.0,0.0,0.0,0.0,南改義竹分場,嘉義縣,120.279361,23.360694
CAD090,2022/10/30 19:20,101.0,-998.0,-998.0,-998.0,-998.0,0.0,0.0,0.0,國三S103K,新竹市,120.9608,24.75861
C1I260,2022/10/30 19:20,601.0,-998.0,-998.0,-998.0,-998.0,0.0,0.0,0.0,北坑,南投縣,121.006903,23.9246
C0V350,2022/10/30 19:20,36.0,-998.0,-998.0,-998.0,-998.0,0.0,0.0,0.0,溪埔,高雄市,120.446797,22.738578
C1D410,2022/10/30 19:20,1290.0,-998.0,-998.0,-998.0,-998.0,0.0,0.0,0.0,白蘭,新竹縣,121.079947,24.579364
C1I020,2022/10/30 19:20,1120.0,-998.0,-998.0,-998.0,-998.0,0.0,0.0,0.0,萬大,南投縣,121.132261,23.979817
C0G880,2022/10/30 19:20,92.0,-998.0,-998.0,-998.0,-998.0,0.0,0.0,0.0,二水,彰化縣,120.6173,23.810742
K2E710,2022/10/30 19:20,286.0,-998.0,-998.0,-998.0,-998.0,0.0,0.0,0.0,苗改生物防治,苗栗縣,120.871833,24.422861
01J100,2022/10/30 19:20,30.0,-998.0,-998.0,-998.0,-998.0,0.0,0.0,0.0,西螺(2),雲林縣,120.464851,23.800493
81C710,2022/10/30 19:20,478.0,-998.0,-998.0,-998.0,-998.0,0.0,0.0,0.0,高坡國小,桃園市,121.35156,24.767971
C0X110,2022/10/30 19:20,20.0,-998.0,-998.0,-998.0,-998.0,0.0,0.0,0.0,臺南市南區,臺南市,120.188378,22.961189
88C690,2022/10/30 19:20,681.0,-998.0,-998.0,-998.0,-998.0,0.0,0.0,0.0,蘇樂,桃園市,121.356813,24.700595
C0O830,2022/10/30 19:20,127.0,-998.0,-998.0,-998.0,-998.0,0.0,0.0,0.0,北寮,臺南市,120.495008,23.079561
C1I310,2022/10/30 19:20,1033.0,-998.0,-998.0,-998.0,-998.0,0.0,0.0,0.0,西巒,南投縣,120.883956,23.754486
C0S760,2022/10/30 19:20,1621.0,-998.0,-998.0,-998.0,-998.0,0.0,2.5,0.5,紅石,臺東縣,121.126219,23.069131
A0K420,2022/10/30 19:20,22.0,-998.0,-998.0,-998.0,-998.0,0.0,0.0,0.0,麥寮,雲林縣,120.217717,23.798783
C1E480,2022/10/30 19:20,576.0,-998.0,-998.0,-998.0,-998.0,0.0,0.0,0.0,鳳美,苗栗縣,121.034747,24.554803
C0F970,2022/10/30 19:20,145.0,-998.0,-998.0,-998.0,-998.0,0.0,0.0,0.0,大坑,臺中市,120.722289,24.173142
C0M690,2022/10/30 19:20,33.0,-998.0,-998.0,-998.0,-998.0,0.0,0.0,0.0,水上,嘉義縣,120.388894,23.419719
81H980,2022/10/30 19:20,150.0,-998.0,-998.0,-998.0,-998.0,0.0,0.0,0.0,車籠埔,南投縣,120.710833,23.793611
C1E691,2022/10/30 19:20,786.0,-998.0,-998.0,-998.0,-998.0,0.0,0.0,0.0,南湖,苗栗縣,120.837533,24.40135
C0G770,2022/10/30 19:20,15.0,-998.0,-998.0,-998.0,-998.0,0.0,0.0,0.0,福興,彰化縣,120.437669,24.041289
O1H540,2022/10/30 19:20,322.0,-998.0,-998.0,-998.0,-998.0,0.0,0.0,0.0,龍神橋,南投縣,120.871686,23.779975
81E870,2022/10/30 19:20,496.0,-998.0,-998.0,-998.0,-998.0,0.0,0.0,0.0,白布帆,苗栗縣,120.905896,24.298227
B2N890,2022/10/30 19:20,31.0,-998.0,-998.0,-998.0,-998.0,0.0,0.0,0.0,畜試所,臺南市,120.336406,23.058972
467420,2022/10/30 19:20,8.1,-998.0,-998.0,-998.0,-998.0,0.0,0.0,0.0,永康,臺南市,120.2367,23.038386
C0I380,2022/10/30 19:20,258.0,-998.0,-998.0,-998.0,-998.0,0.0,0.0,0.0,集集,南投縣,120.801467,23.828206
C0D360,2022/10/30 19:20,523.0,-998.0,-998.0,-998.0,-998.0,0.0,0.0,0.0,梅花,新竹縣,121.208558,24.678347
C0X140,2022/10/30 19:20,17.0,-998.0,-998.0,-998.0,-998.0,0.0,0.0,0.0,西港,臺南市,120.203108,23.125608
C0S890,2022/10/30 19:20,238.0,-998.0,-998.0,-998.0,-998.0,0.0,0.0,0.0,關山,臺東縣,121.175017,23.0395
C0T820,2022/10/30 19:20,550.0,-998.0,-998.0,-998.0,-998.0,0.5,0.5,0.5,天祥,花蓮縣,121.495639,24.179597
81D630,2022/10/30 19:20,372.0,-998.0,-998.0,-998.0,-998.0,0.0,0.0,0.0,尖石國小,新竹縣,121.226523,24.728728
C1I101,2022/10/30 19:20,1810.0,-998.0,-998.0,-998.0,-998.0,0.0,0.0,0.0,溪頭,南投縣,120.807647,23.661789
01H590,2022/10/30 19:20,427.0,-998.0,-998.0,-998.0,-998.0,0.0,0.0,0.0,六分寮,南投縣,120.63801,23.926186
C0M520,2022/10/30 19:20,15.0,-998.0,-998.0,-998.0,-998.0,0.0,0.0,0.0,東後寮,嘉義縣,120.248047,23.369892
01J930,2022/10/30 19:20,82.0,-998.0,-998.0,-998.0,-998.0,0.0,0.0,0.0,林內(1),雲林縣,120.612491,23.755254
01E120,2022/10/30 19:20,42.0,-998.0,-998.0,-998.0,-998.0,0.0,0.0,0.0,大埔,苗栗縣,120.898219,24.709464
467350,2022/10/30 19:20,10.7,-998.0,-998.0,-998.0,-998.0,0.0,0.0,0.0,澎湖,澎湖縣,119.563094,23.565503
C0G940,2022/10/30 19:20,21.0,-998.0,-998.0,-998.0,-998.0,0.0,0.0,0.0,竹塘,彰化縣,120.386764,23.848253
C1I250,2022/10/30 19:20,732.0,-998.0,-998.0,-998.0,-998.0,0.0,0.0,0.0,鯉潭,南投縣,120.991131,23.961922
C0V680,2022/10/30 19:20,40.0,-998.0,-998.0,-998.0,-998.0,0.0,0.0,0.0,仁武,高雄市,120.347722,22.701083
O1V820,2022/10/30 19:20,97.0,-998.0,-998.0,-998.0,-998.0,0.0,0.0,0.0,圓富國中,高雄市,120.509127,22.926574
C0F9U0,2022/10/30 19:20,74.0,-998.0,-998.0,-998.0,-998.0,0.0,0.0,0.0,南屯,臺中市,120.637969,24.137006
C1V390,2022/10/30 19:20,60.0,-998.0,-998.0,-998.0,-998.0,0.0,0.0,0.0,尖山,高雄市,120.367789,22.813153
01U080,2022/10/30 19:20,1050.0,-998.0,-998.0,-998.0,-998.0,4.0,7.0,5.0,南山,宜蘭縣,121.379327,24.437089
C0FA20,2022/10/30 19:20,26.0,-998.0,-998.0,-998.0,-998.0,0.0,0.0,0.0,溫寮,臺中市,120.583125,24.372178
C1E701,2022/10/30 19:20,737.0,-998.0,-998.0,-998.0,-998.0,0.0,0.0,0.0,八卦,苗栗縣,120.927619,24.491756
O1V810,2022/10/30 19:20,65.0,-998.0,-998.0,-998.0,-998.0,0.0,0.0,0.0,溝坪,高雄市,120.509017,22.990682
C1I550,2022/10/30 19:20,373.0,-998.0,-998.0,-998.0,-998.0,0.0,0.0,0.0,國六W023K,南投縣,120.867742,23.979067
88O950,2022/10/30 19:20,274.0,-998.0,-998.0,-998.0,-998.0,0.0,0.0,0.0,羌黃坑,臺南市,120.536955,23.07211
E2HA20,2022/10/30 19:20,2188.0,-998.0,-998.0,-998.0,-998.0,0.0,0.0,0.0,林試畢祿溪站,南投縣,121.308522,24.226944
C0E920,2022/10/30 19:20,20.0,-998.0,-998.0,-998.0,-998.0,0.0,0.0,0.0,通霄漁港,苗栗縣,120.673878,24.498589
C0FA10,2022/10/30 19:20,22.0,-998.0,-998.0,-998.0,-998.0,0.0,0.0,0.0,松柏,臺中市,120.617483,24.429117
C1V200,2022/10/30 19:20,870.0,-998.0,-998.0,-998.0,-998.0,0.0,0.0,0.0,梅山,高雄市,120.823556,23.268447
C0V760,2022/10/30 19:20,30.0,-998.0,-998.0,-998.0,-998.0,0.0,0.0,0.0,橋頭,高雄市,120.30575,22.757806
O1D590,2022/10/30 19:20,97.0,-998.0,-998.0,-998.0,-998.0,0.0,0.0,0.0,成德中學,新竹市,120.952712,24.789844
CAN110,2022/10/30 19:20,5.0,-998.0,-998.0,-998.0,-998.0,0.0,0.0,0.0,西濱S280K,臺南市,120.14891,23.3052
81H930,2022/10/30 19:20,284.0,-998.0,-998.0,-998.0,-998.0,0.0,0.0,0.0,玉峰國小,南投縣,120.837618,23.805589
A2K630,2022/10/30 19:20,45.0,-998.0,-998.0,-998.0,-998.0,0.0,0.0,0.0,臺大雲林校區,雲林縣,120.423903,23.730628
CAE070,2022/10/30 19:20,77.0,-998.0,-998.0,-998.0,-998.0,0.0,0.0,0.0,國三N151K,苗栗縣,120.681656,24.440218
CAP010,2022/10/30 19:20,31.0,-998.0,-998.0,-998.0,-998.0,0.0,0.0,0.0,國一S342K,高雄市,120.295,22.845555
C1E681,2022/10/30 19:20,977.0,-998.0,-998.0,-998.0,-998.0,0.0,0.0,0.0,南勢山,苗栗縣,120.923831,24.421669
88F920,2022/10/30 19:20,655.0,-998.0,-998.0,-998.0,-998.0,0.0,0.0,0.0,松鶴,臺中市,120.978333,24.178889
CAH030,2022/10/30 19:20,300.0,-998.0,-998.0,-998.0,-998.0,0.0,0.0,0.0,茶改場竹圍站,南投縣,120.6375,23.86008
C0G910,2022/10/30 19:20,42.0,-998.0,-998.0,-998.0,-998.0,0.0,0.0,0.0,花壇,彰化縣,120.549461,24.030322
C0I480,2022/10/30 19:20,2165.0,-998.0,-998.0,-998.0,-998.0,0.0,0.0,0.0,梅峰,南投縣,121.173572,24.085272
81H950,2022/10/30 19:20,254.0,-998.0,-998.0,-998.0,-998.0,0.0,0.0,0.0,福龜國小,南投縣,120.822421,24.011505
81S880,2022/10/30 19:20,65.0,-998.0,-998.0,-998.0,-998.0,0.0,0.0,0.0,愛國埔分校,臺東縣,120.922713,22.457746
CAF050,2022/10/30 19:20,85.0,-998.0,-998.0,-998.0,-998.0,0.0,0.0,0.0,國三N208K,臺中市,120.660919,24.066147
CAD100,2022/10/30 19:20,17.0,-998.0,-998.0,-998.0,-998.0,0.0,0.0,0.0,西濱N066K,新竹縣,120.9649,24.8956
01T670,2022/10/30 19:20,1100.0,-998.0,-998.0,-998.0,-998.0,1.0,5.0,3.0,新東礦,花蓮縣,121.403464,23.814841
81AI20,2022/10/30 19:20,249.0,-998.0,-998.0,-998.0,-998.0,0.0,0.0,0.0,有木國小,新北市,121.4375,24.853611
81E710,2022/10/30 19:20,207.0,-998.0,-998.0,-998.0,-998.0,0.0,0.0,0.0,開礦國小,苗栗縣,120.863889,24.461667
A2K570,2022/10/30 19:20,90.0,-998.0,-998.0,-998.0,-998.0,0.0,0.0,0.0,古坑(花),雲林縣,120.55239,23.63353
C0M860,2022/10/30 19:20,578.0,-998.0,-998.0,-998.0,-998.0,0.0,0.0,0.0,新美,嘉義縣,120.683331,23.338017
C0V800,2022/10/30 19:20,256.0,-998.0,-998.0,-998.0,-998.0,0.0,0.0,0.0,六龜,高雄市,120.633583,22.997889
O1S120,2022/10/30 19:20,195.0,-998.0,-998.0,-998.0,-998.0,0.0,0.0,0.0,鹿鳴橋,臺東縣,121.086481,22.898621
C0V640,2022/10/30 19:20,35.0,-998.0,-998.0,-998.0,-998.0,0.0,0.0,0.0,湖內,高雄市,120.2445,22.887139
01E330,2022/10/30 19:20,190.0,-998.0,-998.0,-998.0,-998.0,0.0,0.0,0.0,大坪頂,苗栗縣,120.727759,24.425484
81C700,2022/10/30 19:20,267.0,-998.0,-998.0,-998.0,-998.0,0.0,0.0,0.0,大艽芎古道,桃園市,121.288611,24.825
C1I230,2022/10/30 19:20,837.0,-998.0,-998.0,-998.0,-998.0,0.0,0.0,0.0,九份二山,南投縣,120.845272,23.962025
21D160,2022/10/30 19:20,1620.0,-998.0,-998.0,-998.0,-998.0,0.0,0.0,0.0,白石,新竹縣,121.224879,24.548212
CAF030,2022/10/30 19:20,195.0,-998.0,-998.0,-998.0,-998.0,0.0,0.0,0.0,國一S169K,臺中市,120.688271,24.237116
01S440,2022/10/30 19:20,465.0,-998.0,-998.0,-998.0,-998.0,0.0,1.0,0.0,新武(3),臺東縣,121.122873,23.132568
C0H9A0,2022/10/30 19:20,1595.0,-998.0,-998.0,-998.0,-998.0,0.0,0.0,0.0,神木村,南投縣,120.843667,23.532742
C1H000,2022/10/30 19:20,2454.0,-998.0,-998.0,-998.0,-998.0,0.0,0.0,0.0,翠峰,南投縣,121.205211,24.109397
CAN130,2022/10/30 19:20,2.3,-998.0,-998.0,-998.0,-998.0,0.0,0.0,0.0,水試所海水繁,臺南市,120.079676,23.120802
G2M350,2022/10/30 19:20,26.0,-998.0,-998.0,-998.0,-998.0,0.0,0.0,0.0,農試溪口農場,嘉義縣,120.408111,23.58565
C0C670,2022/10/30 19:20,250.0,-998.0,-998.0,-998.0,-998.0,0.0,0.0,0.0,龍潭,桃園市,121.221389,24.870056
O1R450,2022/10/30 19:20,114.0,-998.0,-998.0,-998.0,-998.0,0.0,0.0,0.0,新豐(1),屏東縣,120.617155,22.855418
CAJ010,2022/10/30 19:20,130.0,-998.0,-998.0,-998.0,-998.0,0.0,0.0,0.0,國三N252K,雲林縣,120.64061,23.77412
CAN060,2022/10/30 19:20,66.0,-998.0,-998.0,-998.0,-998.0,0.0,0.0,0.0,國三S311K,臺南市,120.438888,23.346388
C1I500,2022/10/30 19:20,2017.0,-998.0,-998.0,-998.0,-998.0,0.0,0.0,0.0,大尖山,南投縣,120.994889,23.858572
C0O990,2022/10/30 19:20,18.0,-998.0,-998.0,-998.0,-998.0,0.0,0.0,0.0,媽廟,臺南市,120.293525,22.99175
01E400,2022/10/30 19:20,99.5,-998.0,-998.0,-998.0,-998.0,0.0,0.0,0.0,三灣,苗栗縣,120.955306,24.655722
C0K500,2022/10/30 19:20,12.0,-998.0,-998.0,-998.0,-998.0,0.0,0.0,0.0,元長,雲林縣,120.315011,23.649797
72K220,2022/10/30 19:20,60.0,-998.0,-998.0,-998.0,-998.0,0.0,0.0,0.0,南改斗南分場,雲林縣,120.477333,23.634556
C1F941,2022/10/30 19:20,2620.0,-998.0,-998.0,-998.0,-998.0,0.0,0.0,0.0,雪嶺,臺中市,121.026642,24.280586
CAE080,2022/10/30 19:20,64.0,-998.0,-998.0,-998.0,-998.0,0.0,0.0,0.0,國三S140K,苗栗縣,120.725006,24.522345
CAE110,2022/10/30 19:20,42.0,-998.0,-998.0,-998.0,-998.0,0.0,0.0,0.0,西濱S129K,苗栗縣,120.6428,24.4472
01S860,2022/10/30 19:20,220.0,-998.0,-998.0,-998.0,-998.0,0.0,0.0,0.0,電光,臺東縣,121.173241,23.006248
72M700,2022/10/30 19:20,14.0,-998.0,-998.0,-998.0,-998.0,0.0,0.0,0.0,南改鹿草分場,嘉義縣,120.283061,23.416869
01P390,2022/10/30 19:20,90.0,-998.0,-998.0,-998.0,-998.0,0.0,0.0,0.0,金山,高雄市,120.398164,22.811862
C0I460,2022/10/30 19:20,110.0,-998.0,-998.0,-998.0,-998.0,0.0,0.0,0.0,南投,南投縣,120.687331,23.911469
C1I220,2022/10/30 19:20,1098.0,-998.0,-998.0,-998.0,-998.0,0.0,0.0,0.0,樟湖,南投縣,120.846983,23.905333
C0M760,2022/10/30 19:20,40.0,-998.0,-998.0,-998.0,-998.0,0.0,0.0,0.0,民雄,嘉義縣,120.428444,23.551742
CAG080,2022/10/30 19:20,30.0,-998.0,-998.0,-998.0,-998.0,0.0,0.0,0.0,西濱S189K,彰化縣,120.369607,23.987857
U2HA30,2022/10/30 19:20,772.0,-998.0,-998.0,-998.0,-998.0,0.0,0.0,0.0,臺大和社,南投縣,120.888864,23.590856
K2E360,2022/10/30 19:20,100.0,-998.0,-998.0,-998.0,-998.0,0.0,0.0,0.0,苗栗農改,苗栗縣,120.829111,24.495722
01E270,2022/10/30 19:20,275.0,-998.0,-998.0,-998.0,-998.0,0.0,0.0,0.0,大湖(1),苗栗縣,120.869835,24.42364
C0I390,2022/10/30 19:20,1184.0,-998.0,-998.0,-998.0,-998.0,0.0,0.0,0.0,仁愛,南投縣,121.132206,24.022122
C0G800,2022/10/30 19:20,15.0,-998.0,-998.0,-998.0,-998.0,0.0,0.0,0.0,埔鹽,彰化縣,120.431683,24.000394
81I530,2022/10/30 19:20,1179.0,-998.0,-998.0,-998.0,-998.0,0.0,0.0,0.0,神木,南投縣,120.856691,23.528204
C0F850,2022/10/30 19:20,379.0,-998.0,-998.0,-998.0,-998.0,0.0,0.0,0.0,東勢,臺中市,120.833047,24.246428
CAN120,2022/10/30 19:20,49.0,-998.0,-998.0,-998.0,-998.0,0.0,0.0,0.0,西濱N304K,臺南市,120.086694,23.103439
C0K480,2022/10/30 19:20,56.0,-998.0,-998.0,-998.0,-998.0,0.0,0.0,0.0,莿桐,雲林縣,120.502372,23.761192
01E170,2022/10/30 19:20,229.0,-998.0,-998.0,-998.0,-998.0,0.0,0.0,0.0,南庄(1),苗栗縣,121.00036,24.597043
72D080,2022/10/30 19:20,1048.0,-998.0,-998.0,-998.0,-998.0,0.0,0.0,0.0,桃改五峰分場,新竹縣,121.157167,24.612194
C1D630,2022/10/30 19:20,462.0,-998.0,-998.0,-998.0,-998.0,0.0,0.0,0.0,飛鳳山,新竹縣,121.119178,24.766464
01D180,2022/10/30 19:20,560.0,-998.0,-998.0,-998.0,-998.0,0.0,0.0,0.0,梅花,新竹縣,121.208601,24.677573
C0K470,2022/10/30 19:20,97.0,-998.0,-998.0,-998.0,-998.0,0.0,0.0,0.0,林內,雲林縣,120.609642,23.748675
81M690,2022/10/30 19:20,179.0,-998.0,-998.0,-998.0,-998.0,0.0,0.0,0.0,沄水國小,嘉義縣,120.530602,23.381471
C0E830,2022/10/30 19:20,37.0,-998.0,-998.0,-998.0,-998.0,0.0,0.0,0.0,苑裡,苗栗縣,120.653053,24.439714
C0K330,2022/10/30 19:20,38.0,-998.0,-998.0,-998.0,-998.0,0.0,0.0,0.0,虎尾,雲林縣,120.442036,23.719183
C0G830,2022/10/30 19:20,27.0,-998.0,-998.0,-998.0,-998.0,0.0,0.0,0.0,埤頭,彰化縣,120.452806,23.866003
21C080,2022/10/30 19:20,620.0,-998.0,-998.0,-998.0,-998.0,0.0,0.0,0.0,高義,桃園市,121.358188,24.714905
01O760,2022/10/30 19:20,240.0,-998.0,-998.0,-998.0,-998.0,0.0,0.0,0.0,關山,臺南市,120.595163,23.173338
467530,2022/10/30 19:20,2413.4,-998.0,-998.0,-998.0,-998.0,0.0,0.0,0.0,阿里山,嘉義縣,120.813242,23.508208
C0I080,2022/10/30 19:20,536.0,-998.0,-998.0,-998.0,-998.0,0.0,0.0,0.0,信義,南投縣,120.851036,23.689694
00H810,2022/10/30 19:20,684.0,-998.0,-998.0,-998.0,-998.0,0.0,0.0,0.0,惠蓀(2),南投縣,121.032224,24.090736
21C140,2022/10/30 19:20,350.0,-998.0,-998.0,-998.0,-998.0,0.0,0.0,0.0,霞雲,桃園市,121.358193,24.798205
12Q980,2022/10/30 19:20,16.0,-998.0,-998.0,-998.0,-998.0,0.0,0.0,0.0,恆春工作站,屏東縣,120.714425,22.079678
C0M640,2022/10/30 19:20,155.0,-998.0,-998.0,-998.0,-998.0,0.0,0.0,0.0,中埔,嘉義縣,120.522903,23.425381
00Q070,2022/10/30 19:20,25.0,-998.0,-998.0,-998.0,-998.0,0.0,0.0,0.0,屏東(5),屏東縣,120.466375,22.654873
01L480,2022/10/30 19:20,545.0,-998.0,-998.0,-998.0,-998.0,0.0,0.0,0.0,樟腦寮(2),嘉義縣,120.602587,23.533049
81D600,2022/10/30 19:20,446.0,-998.0,-998.0,-998.0,-998.0,0.0,0.0,0.0,五峰國小,新竹縣,121.117585,24.631479
C0E730,2022/10/30 19:20,26.0,-998.0,-998.0,-998.0,-998.0,0.0,0.0,0.0,頭份,苗栗縣,120.912206,24.688247
C1F9F1,2022/10/30 19:20,500.0,-998.0,-998.0,-998.0,-998.0,0.0,0.0,0.0,伯公龍,臺中市,120.849047,24.272392
C0E930,2022/10/30 19:20,26.0,-998.0,-998.0,-998.0,-998.0,0.0,0.0,0.0,龍鳳,苗栗縣,120.859128,24.700036
C0M650,2022/10/30 19:20,20.0,-998.0,-998.0,-998.0,-998.0,0.0,0.0,0.0,朴子,嘉義縣,120.239019,23.434628
01P770,2022/10/30 19:20,61.1,-998.0,-998.0,-998.0,-998.0,0.0,0.0,0.0,美濃(2),高雄市,120.540195,22.892969
C0D690,2022/10/30 19:20,20.0,-998.0,-998.0,-998.0,-998.0,0.0,0.0,0.0,外湖,新竹縣,120.968711,24.917736
CAL100,2022/10/30 19:20,8.0,-998.0,-998.0,-998.0,-998.0,0.0,0.0,0.0,西濱S267K,嘉義縣,120.162872,23.41613
C0V490,2022/10/30 19:20,20.0,-998.0,-998.0,-998.0,-998.0,0.0,0.0,0.0,新興,高雄市,120.298803,22.627422
C0M710,2022/10/30 19:20,15.0,-998.0,-998.0,-998.0,-998.0,0.0,0.0,0.0,東石,嘉義縣,120.153831,23.458911
CAF100,2022/10/30 19:20,14.0,-998.0,-998.0,-998.0,-998.0,0.0,0.0,0.0,西濱N151K,臺中市,120.547681,24.275964
01E290,2022/10/30 19:20,269.0,-998.0,-998.0,-998.0,-998.0,0.0,0.0,0.0,三義(2),苗栗縣,120.77003,24.414244
81H900,2022/10/30 19:20,440.0,-998.0,-998.0,-998.0,-998.0,0.0,0.0,0.0,大觀發電廠,南投縣,120.869499,23.854531
CAD020,2022/10/30 19:20,172.0,-998.0,-998.0,-998.0,-998.0,0.0,0.0,0.0,國一N077K,新竹縣,121.0889,24.885
01L390,2022/10/30 19:20,725.0,-998.0,-998.0,-998.0,-998.0,0.0,0.0,0.0,大湖山,嘉義縣,120.620189,23.475173
82H840,2022/10/30 19:20,390.0,-998.0,-998.0,-998.0,-998.0,0.0,0.0,0.0,茶改南部分場,南投縣,120.7405,23.762528
C0M700,2022/10/30 19:20,150.0,-998.0,-998.0,-998.0,-998.0,0.0,0.5,0.0,竹崎,嘉義縣,120.555497,23.526167
C0A970,2022/10/30 19:20,96.0,-998.0,-998.0,-998.0,-998.0,0.0,0.0,0.0,三貂角,新北市,122.002058,25.007606
C0V740,2022/10/30 19:20,60.0,-998.0,-998.0,-998.0,-998.0,0.0,0.0,0.0,旗山,高雄市,120.483597,22.888614
01S360,2022/10/30 19:20,480.0,-998.0,-998.0,-998.0,-998.0,0.0,0.0,0.0,紹家,臺東縣,120.858181,22.379592
CAE020,2022/10/30 19:20,32.0,-998.0,-998.0,-998.0,-998.0,0.0,0.0,0.0,國一S114K,苗栗縣,120.885811,24.668836
72N240,2022/10/30 19:20,2.0,-998.0,-998.0,-998.0,-998.0,0.0,0.0,0.0,七股研究中心,臺南市,120.062894,23.081672
81H970,2022/10/30 19:20,304.0,-998.0,-998.0,-998.0,-998.0,0.0,0.0,0.0,永興國小,南投縣,120.86372,23.784838
C0K440,2022/10/30 19:20,35.0,-998.0,-998.0,-998.0,-998.0,0.0,0.0,0.0,二崙,雲林縣,120.408944,23.772797
C0F9V0,2022/10/30 19:20,525.0,-998.0,-998.0,-998.0,-998.0,0.0,0.0,0.0,新社,臺中市,120.815806,24.200172
C0M850,2022/10/30 19:20,695.0,-998.0,-998.0,-998.0,-998.0,0.0,0.0,0.0,表湖,嘉義縣,120.641658,23.241856
O1V540,2022/10/30 19:20,565.9,-998.0,-998.0,-998.0,-998.0,0.0,0.0,0.0,高中(2),高雄市,120.703273,23.110591
O1D570,2022/10/30 19:20,84.0,-998.0,-998.0,-998.0,-998.0,0.0,0.0,0.0,新城國小,新竹縣,120.967392,24.73339
C0I360,2022/10/30 19:20,300.0,-998.0,-998.0,-998.0,-998.0,0.0,0.0,0.0,水里,南投縣,120.849792,23.812553
81V830,2022/10/30 19:20,567.0,-998.0,-998.0,-998.0,-998.0,0.0,0.0,0.0,那瑪夏國中,高雄市,120.696717,23.240423
C0G920,2022/10/30 19:20,42.0,-998.0,-998.0,-998.0,-998.0,0.0,0.0,0.0,永靖,彰化縣,120.547533,23.924703
C1E670,2022/10/30 19:20,1209.0,-998.0,-998.0,-998.0,-998.0,0.0,0.0,0.0,南礦,苗栗縣,121.002836,24.538278
C0D540,2022/10/30 19:20,227.0,-998.0,-998.0,-998.0,-998.0,0.0,0.0,0.0,橫山,新竹縣,121.116933,24.711158
01K060,2022/10/30 19:20,13.0,-998.0,-998.0,-998.0,-998.0,0.0,0.0,0.0,褒忠(2),雲林縣,120.311047,23.701086
01N860,2022/10/30 19:20,100.0,-998.0,-998.0,-998.0,-998.0,0.0,0.0,0.0,崎頂,臺南市,120.359823,22.964938
01Q930,2022/10/30 19:20,150.0,-998.0,-998.0,-998.0,-998.0,0.0,0.0,0.0,三地門,屏東縣,120.649251,22.708369
81M020,2022/10/30 19:20,828.0,-998.0,-998.0,-998.0,-998.0,0.0,0.0,0.0,豐山,嘉義縣,120.744799,23.590386
01D300,2022/10/30 19:20,146.0,-998.0,-998.0,-998.0,-998.0,0.0,0.0,0.0,關西(3),新竹縣,121.180437,24.780225
C1F871,2022/10/30 19:20,1000.0,-998.0,-998.0,-998.0,-998.0,0.0,0.0,0.0,上谷關,臺中市,121.018644,24.203483
K2F750,2022/10/30 19:20,470.0,-998.0,-998.0,-998.0,-998.0,0.0,0.0,0.0,種苗繁殖,臺中市,120.800917,24.225972
C0U720,2022/10/30 19:20,1260.0,-998.0,-998.0,-998.0,-998.0,4.0,7.0,5.0,南山,宜蘭縣,121.381669,24.437419
C1O880,2022/10/30 19:20,223.0,-998.0,-998.0,-998.0,-998.0,0.0,0.0,0.0,關山,臺南市,120.594092,23.173397
81M670,2022/10/30 19:20,560.0,-998.0,-998.0,-998.0,-998.0,0.0,0.0,0.0,新美國小,嘉義縣,120.683124,23.337816
C0X150,2022/10/30 19:20,18.0,-998.0,-998.0,-998.0,-998.0,0.0,0.0,0.0,安定,臺南市,120.227839,23.102614
C0Z050,2022/10/30 19:20,830.0,-998.0,-998.0,-998.0,-998.0,0.0,8.5,0.0,佳心,花蓮縣,121.213164,23.345667
81M680,2022/10/30 19:20,1181.0,-998.0,-998.0,-998.0,-998.0,0.0,0.0,0.0,太和村,嘉義縣,120.708889,23.535556
CAN070,2022/10/30 19:20,63.0,-998.0,-998.0,-998.0,-998.0,0.0,0.0,0.0,國三S329K,臺南市,120.355833,23.212777
C0X240,2022/10/30 19:20,394.0,-998.0,-998.0,-998.0,-998.0,0.0,0.0,0.0,關子嶺,臺南市,120.508025,23.331169
01O190,2022/10/30 19:20,80.0,-998.0,-998.0,-998.0,-998.0,0.0,0.0,0.0,東原,臺南市,120.445893,23.265355
C1I280,2022/10/30 19:20,439.0,-998.0,-998.0,-998.0,-998.0,0.0,0.0,0.0,埔中,南投縣,120.642594,23.820778
C0X050,2022/10/30 19:20,25.0,-998.0,-998.0,-998.0,-998.0,0.0,0.0,0.0,東河,臺南市,120.385592,23.296581
CAP040,2022/10/30 19:20,27.0,-998.0,-998.0,-998.0,-998.0,0.0,0.0,0.0,國一N361K,高雄市,120.328611,22.680555
CAG040,2022/10/30 19:20,35.0,-998.0,-998.0,-998.0,-998.0,0.0,0.0,0.0,國三N191K,彰化縣,120.5215,24.139256
C1I470,2022/10/30 19:20,1680.0,-998.0,-998.0,-998.0,-998.0,0.0,0.0,0.0,杉林溪,南投縣,120.786444,23.639517
C1F9G1,2022/10/30 19:20,810.0,-998.0,-998.0,-998.0,-998.0,0.0,0.0,0.0,慶福山,臺中市,120.848378,24.180853
O1P470,2022/10/30 19:20,64.0,-998.0,-998.0,-998.0,-998.0,0.0,0.0,0.0,旗山(4),高雄市,120.481673,22.879521
01M010,2022/10/30 19:20,17.0,-998.0,-998.0,-998.0,-998.0,0.0,0.0,0.0,溪口(3),嘉義縣,120.40001,23.587551
01S430,2022/10/30 19:20,925.0,-998.0,-998.0,-998.0,-998.0,0.0,1.0,0.0,霧鹿,臺東縣,121.041436,23.169246
CAL030,2022/10/30 19:20,39.0,-998.0,-998.0,-998.0,-998.0,0.0,0.0,0.0,國一N268K,嘉義縣,120.375833,23.460833
CAD060,2022/10/30 19:20,75.0,-998.0,-998.0,-998.0,-998.0,0.0,0.0,0.0,國一S098K,新竹縣,120.9911,24.76056
C0V660,2022/10/30 19:20,25.0,-998.0,-998.0,-998.0,-998.0,0.0,0.0,0.0,岡山,高雄市,120.294958,22.797078
C1I201,2022/10/30 19:20,677.0,-998.0,-998.0,-998.0,-998.0,0.0,0.0,0.0,中心崙,南投縣,120.712097,23.728722
C0R130,2022/10/30 19:20,1040.0,-998.0,-998.0,-998.0,-998.0,0.0,0.0,0.0,阿禮,屏東縣,120.743678,22.742908
CAG100,2022/10/30 19:20,7.0,-998.0,-998.0,-998.0,-998.0,0.0,0.0,0.0,王功漁港,彰化縣,120.32586,23.96824
C0X170,2022/10/30 19:20,50.0,-998.0,-998.0,-998.0,-998.0,0.0,0.0,0.0,關廟,臺南市,120.327797,22.963017
01P190,2022/10/30 19:20,78.0,-998.0,-998.0,-998.0,-998.0,0.0,0.0,0.0,木柵,高雄市,120.467014,22.975659
01W010,2022/10/30 19:20,18.0,-998.0,-998.0,-998.0,-998.0,0.0,0.0,0.0,望安,澎湖縣,119.500614,23.360891
C1F911,2022/10/30 19:20,417.0,-998.0,-998.0,-998.0,-998.0,0.0,0.0,0.0,新伯公,臺中市,120.841069,24.221361
C0K291,2022/10/30 19:20,8.0,-998.0,-998.0,-998.0,-998.0,0.0,0.0,0.0,宜梧,雲林縣,120.169311,23.536267
C0E780,2022/10/30 19:20,160.0,-998.0,-998.0,-998.0,-998.0,0.0,0.0,0.0,銅鑼,苗栗縣,120.790853,24.489681
01S560,2022/10/30 19:20,180.0,-998.0,-998.0,-998.0,-998.0,0.0,0.0,0.0,南鵝,臺東縣,121.024368,22.766264
01O710,2022/10/30 19:20,34.0,-998.0,-998.0,-998.0,-998.0,0.0,0.0,0.0,虎頭埤,臺南市,120.337183,23.025684
01V040,2022/10/30 19:20,259.5,-998.0,-998.0,-998.0,-998.0,0.0,0.0,0.0,六龜(4),高雄市,120.633563,22.997838
C1I450,2022/10/30 19:20,3025.0,-998.0,-998.0,-998.0,-998.0,0.0,0.0,0.0,望鄉山,南投縣,120.944286,23.594153
V2K620,2022/10/30 19:20,9.0,-998.0,-998.0,-998.0,-998.0,0.0,0.0,0.0,麥寮合作社,雲林縣,120.294783,23.753836
C0V360,2022/10/30 19:20,94.0,-998.0,-998.0,-998.0,-998.0,0.0,0.0,0.0,內門,高雄市,120.466769,22.975481
CAG030,2022/10/30 19:20,33.0,-998.0,-998.0,-998.0,-998.0,0.0,0.0,0.0,國一S207K,彰化縣,120.508092,23.988304
466950,2022/10/30 19:20,99.0,-998.0,-998.0,-998.0,-998.0,0.0,0.0,0.0,彭佳嶼,基隆市,122.079744,25.627975
C0D650,2022/10/30 19:20,97.0,-998.0,-998.0,-998.0,-998.0,0.0,0.0,0.0,湖口,新竹縣,121.043628,24.904794
O1S690,2022/10/30 19:20,725.0,-998.0,-998.0,-998.0,-998.0,0.0,0.0,0.0,神山,屏東縣,120.728297,22.748999
C0V630,2022/10/30 19:20,19.0,-998.0,-998.0,-998.0,-998.0,0.0,0.0,0.0,茄萣,高雄市,120.182608,22.906642
C0G820,2022/10/30 19:20,29.0,-998.0,-998.0,-998.0,-998.0,0.0,0.0,0.0,田尾,彰化縣,120.509389,23.901669
01E230,2022/10/30 19:20,335.0,-998.0,-998.0,-998.0,-998.0,0.0,0.0,0.0,卓蘭(2),臺中市,120.813208,24.30505
C0R590,2022/10/30 19:20,72.0,-998.0,-998.0,-998.0,-998.0,0.0,0.0,0.0,里港,屏東縣,120.494589,22.779194
CAF090,2022/10/30 19:20,130.0,-998.0,-998.0,-998.0,-998.0,0.0,0.0,0.0,國四E5K,臺中市,120.643135,24.296465
81U890,2022/10/30 19:20,24.0,-998.0,-998.0,-998.0,-998.0,1.0,1.0,1.0,大里國小,宜蘭縣,121.926111,24.970278
C0X300,2022/10/30 19:20,70.0,-998.0,-998.0,-998.0,-998.0,0.0,0.0,0.0,鹿寮,臺南市,120.477331,23.386047
C1I320,2022/10/30 19:20,1275.0,-998.0,-998.0,-998.0,-998.0,0.0,0.0,0.0,奧萬大,南投縣,121.178556,23.952956
72V140,2022/10/30 19:20,44.0,-998.0,-998.0,-998.0,-998.0,0.0,0.0,0.0,高改旗南分場,高雄市,120.516667,22.857861
C0R160,2022/10/30 19:20,45.0,-998.0,-998.0,-998.0,-998.0,0.0,0.0,0.0,鹽埔,屏東縣,120.530778,22.739558
CAL090,2022/10/30 19:20,5.0,-998.0,-998.0,-998.0,-998.0,0.0,0.0,0.0,西濱S257K,嘉義縣,120.171861,23.502278
CAG010,2022/10/30 19:20,28.0,-998.0,-998.0,-998.0,-998.0,0.0,0.0,0.0,國一N198K,彰化縣,120.523056,24.063889
01N850,2022/10/30 19:20,114.0,-998.0,-998.0,-998.0,-998.0,0.0,0.0,0.0,南化(2),臺南市,120.479345,23.044518
01S870,2022/10/30 19:20,135.0,-998.0,-998.0,-998.0,-998.0,0.0,5.0,0.0,北源,臺東縣,121.301007,23.037536
CAN140,2022/10/30 19:20,24.0,-998.0,-998.0,-998.0,-998.0,0.0,0.0,0.0,六官養殖協會,臺南市,120.29962,23.22881
81C780,2022/10/30 19:20,357.0,-998.0,-998.0,-998.0,-998.0,0.0,0.0,0.0,奎輝國小,桃園市,121.334444,24.7975
C0D550,2022/10/30 19:20,1956.0,-998.0,-998.0,-998.0,-998.0,0.0,0.0,0.0,雪霸,新竹縣,121.11605,24.526972
C0S950,2022/10/30 19:20,415.0,-998.0,-998.0,-998.0,-998.0,0.5,2.0,0.5,七塊厝,臺東縣,121.229922,22.954453
01O070,2022/10/30 19:20,350.0,-998.0,-998.0,-998.0,-998.0,0.0,0.0,0.0,關子嶺(2),臺南市,120.506972,23.330882
C0M670,2022/10/30 19:20,43.0,-998.0,-998.0,-998.0,-998.0,0.0,0.0,0.0,大林,嘉義縣,120.458397,23.600606
C1E601,2022/10/30 19:20,125.0,-998.0,-998.0,-998.0,-998.0,0.0,0.0,0.0,南勢,苗栗縣,120.734842,24.572486
CAE060,2022/10/30 19:20,28.0,-998.0,-998.0,-998.0,-998.0,0.0,0.0,0.0,國三N119K,苗栗縣,120.847389,24.675432
C0K400,2022/10/30 19:20,65.0,-998.0,-998.0,-998.0,-998.0,0.0,0.0,0.0,斗六,雲林縣,120.541117,23.720575
C0I370,2022/10/30 19:20,671.0,-998.0,-998.0,-998.0,-998.0,0.0,0.0,0.0,魚池,南投縣,120.94135,23.895703
U2HA50,2022/10/30 19:20,156.0,-998.0,-998.0,-998.0,-998.0,0.0,0.0,0.0,臺大竹山,南投縣,120.681556,23.756972
CAD040,2022/10/30 19:20,48.0,-998.0,-998.0,-998.0,-998.0,0.0,0.0,0.0,國一S088K,新竹縣,121.0214,24.84444
C1D640,2022/10/30 19:20,718.0,-998.0,-998.0,-998.0,-998.0,0.0,0.0,0.0,外坪五指,新竹縣,121.090961,24.644447
C0E740,2022/10/30 19:20,27.0,-998.0,-998.0,-998.0,-998.0,0.0,0.0,0.0,造橋,苗栗縣,120.864778,24.637056
01H780,2022/10/30 19:20,485.0,-998.0,-998.0,-998.0,-998.0,0.0,0.0,0.0,內茅埔(2),南投縣,120.851828,23.6906
C0G740,2022/10/30 19:20,24.0,-998.0,-998.0,-998.0,-998.0,0.0,0.0,0.0,大城,彰化縣,120.320922,23.852481
81H990,2022/10/30 19:20,948.0,-998.0,-998.0,-998.0,-998.0,0.0,0.0,0.0,羅娜國小,南投縣,120.870556,23.628333
C0F9T0,2022/10/30 19:20,111.0,-998.0,-998.0,-998.0,-998.0,0.0,0.0,0.0,西屯,臺中市,120.641275,24.179494
CAL050,2022/10/30 19:20,113.0,-998.0,-998.0,-998.0,-998.0,0.0,0.0,0.0,國三N279K,嘉義縣,120.523333,23.596111
C0S710,2022/10/30 19:20,382.0,-998.0,-998.0,-998.0,-998.0,0.0,1.0,0.0,鹿野,臺東縣,121.122994,22.917711
81V840,2022/10/30 19:20,335.0,-998.0,-998.0,-998.0,-998.0,0.0,0.0,0.0,新發國小,高雄市,120.6625,23.0325
467571,2022/10/30 19:20,26.9,-998.0,-998.0,-998.0,-998.0,0.0,0.0,0.0,新竹,新竹縣,121.014219,24.827853
C0X220,2022/10/30 19:20,26.0,-998.0,-998.0,-998.0,-998.0,0.0,0.0,0.0,學甲,臺南市,120.182167,23.230347
CAN010,2022/10/30 19:20,34.0,-998.0,-998.0,-998.0,-998.0,0.0,0.0,0.0,國一N288K,臺南市,120.290033,23.30609
CAG050,2022/10/30 19:20,60.0,-998.0,-998.0,-998.0,-998.0,0.0,0.0,0.0,國三N196K,彰化縣,120.554482,24.107155
42HA10,2022/10/30 19:20,1000.0,-998.0,-998.0,-998.0,-998.0,0.0,0.0,0.0,萬大發電廠,南投縣,121.139639,23.978875
C1M600,2022/10/30 19:20,986.0,-998.0,-998.0,-998.0,-998.0,0.0,0.0,0.0,頭凍,嘉義縣,120.603339,23.406364
01H720,2022/10/30 19:20,415.0,-998.0,-998.0,-998.0,-998.0,0.0,0.0,0.0,清流(1),南投縣,120.953395,24.066314
C1F9J1,2022/10/30 19:20,723.0,-998.0,-998.0,-998.0,-998.0,0.0,0.0,0.0,清水林,臺中市,120.820419,24.071242
U2HA40,2022/10/30 19:20,507.0,-998.0,-998.0,-998.0,-998.0,0.0,0.0,0.0,臺大內茅埔,南投縣,120.851117,23.689722
C0SA10,2022/10/30 19:20,411.0,-998.0,-998.0,-998.0,-998.0,0.0,0.0,0.0,檳榔四格山,臺東縣,121.109308,22.810031
81I540,2022/10/30 19:20,459.0,-998.0,-998.0,-998.0,-998.0,0.0,0.0,0.0,上安,南投縣,120.876679,23.72541
C1H840,2022/10/30 19:20,231.0,-998.0,-998.0,-998.0,-998.0,0.0,0.0,0.0,國三N238K,南投縣,120.699575,23.841008
C0K560,2022/10/30 19:20,117.0,-998.0,-998.0,-998.0,-998.0,0.0,0.0,0.0,棋山,雲林縣,120.603417,23.68645
01F680,2022/10/30 19:20,477.0,-998.0,-998.0,-998.0,-998.0,0.0,0.0,0.0,頭汴坑,臺中市,120.811125,24.115092
V2K610,2022/10/30 19:20,23.0,-998.0,-998.0,-998.0,-998.0,0.0,0.0,0.0,大庄合作社,雲林縣,120.367939,23.8068
C0G890,2022/10/30 19:20,24.0,-998.0,-998.0,-998.0,-998.0,0.0,0.0,0.0,伸港,彰化縣,120.484403,24.148933
C0K390,2022/10/30 19:20,31.0,-998.0,-998.0,-998.0,-998.0,0.0,0.0,0.0,土庫,雲林縣,120.395561,23.679019
C1I430,2022/10/30 19:20,2415.0,-998.0,-998.0,-998.0,-998.0,0.0,0.0,0.0,翠華,南投縣,121.224339,24.191961
CAHA00,2022/10/30 19:20,176.0,-998.0,-998.0,-998.0,-998.0,0.0,0.0,0.0,消防署訓,南投縣,120.72293,23.82137
81V820,2022/10/30 19:20,760.0,-998.0,-998.0,-998.0,-998.0,0.0,0.0,0.0,建山國小,高雄市,120.682922,23.105439
C0I420,2022/10/30 19:20,305.0,-998.0,-998.0,-998.0,-998.0,0.0,0.0,0.0,國姓,南投縣,120.855072,24.037803
01L360,2022/10/30 19:20,680.0,-998.0,-998.0,-998.0,-998.0,0.0,0.0,0.0,小公田(2),嘉義縣,120.641716,23.424513
C0F9M0,2022/10/30 19:20,230.0,-998.0,-998.0,-998.0,-998.0,0.0,0.0,0.0,豐原,臺中市,120.720692,24.254322
C0K430,2022/10/30 19:20,30.0,-998.0,-998.0,-998.0,-998.0,0.0,0.0,0.0,褒忠,雲林縣,120.303619,23.690928
C0W120,2022/10/30 19:20,58.0,-998.0,-998.0,-998.0,-998.0,0.0,0.0,0.0,西嶼,澎湖縣,119.468436,23.5626
C0M770,2022/10/30 19:20,164.0,-998.0,-998.0,-998.0,-998.0,0.0,0.0,0.0,梅山,嘉義縣,120.555581,23.585386
81E880,2022/10/30 19:20,210.0,-998.0,-998.0,-998.0,-998.0,0.0,0.0,0.0,火炎山,苗栗縣,120.729316,24.356087
CAJ050,2022/10/30 19:20,4.0,-998.0,-998.0,-998.0,-998.0,0.0,0.0,0.0,海口故事園區,雲林縣,120.14121,23.57543
C0S930,2022/10/30 19:20,248.0,-998.0,-998.0,-998.0,-998.0,0.0,0.5,0.0,延平,臺東縣,121.084058,22.902581
CAE050,2022/10/30 19:20,339.0,-998.0,-998.0,-998.0,-998.0,0.0,0.0,0.0,國一S152K,苗栗縣,120.749184,24.375492
C0O860,2022/10/30 19:20,38.0,-998.0,-998.0,-998.0,-998.0,0.0,0.0,0.0,大內,臺南市,120.360833,23.118847
81O960,2022/10/30 19:20,575.0,-998.0,-998.0,-998.0,-998.0,0.0,0.0,0.0,崁頭山,臺南市,120.501621,23.267835
CAC010,2022/10/30 19:20,214.0,-998.0,-998.0,-998.0,-998.0,0.0,0.0,0.0,國一S072K,桃園市,121.1342,24.89583
C1I340,2022/10/30 19:20,897.0,-998.0,-998.0,-998.0,-998.0,0.0,0.0,0.0,新興橋,南投縣,120.868728,23.563333
C0G620,2022/10/30 19:20,110.0,-998.0,-998.0,-998.0,-998.0,0.0,0.0,0.0,芬園,彰化縣,120.6213,24.015678
C0X160,2022/10/30 19:20,26.0,-998.0,-998.0,-998.0,-998.0,0.0,0.0,0.0,仁德,臺南市,120.257689,22.968258
O1T810,2022/10/30 19:20,203.0,-998.0,-998.0,-998.0,-998.0,0.0,3.0,1.0,卓清國小,花蓮縣,121.271983,23.278428
CAF040,2022/10/30 19:20,54.0,-998.0,-998.0,-998.0,-998.0,0.0,0.0,0.0,國一S188K,臺中市,120.585747,24.118546
01V070,2022/10/30 19:20,2230.0,-998.0,-998.0,-998.0,-998.0,0.0,0.0,0.0,天池,高雄市,120.916901,23.277581
01S570,2022/10/30 19:20,274.0,-998.0,-998.0,-998.0,-998.0,0.0,0.0,0.0,上里,臺東縣,121.057045,22.877254
72HA00,2022/10/30 19:20,628.0,-998.0,-998.0,-998.0,-998.0,0.0,0.0,0.0,中改埔里分場,南投縣,120.963364,23.903208
C0V690,2022/10/30 19:20,30.0,-998.0,-998.0,-998.0,-998.0,0.0,0.0,0.0,鼓山,高雄市,120.275575,22.623325
CAP030,2022/10/30 19:20,37.0,-998.0,-998.0,-998.0,-998.0,0.0,0.0,0.0,國一N351K,高雄市,120.328888,22.765833
C0X200,2022/10/30 19:20,61.0,-998.0,-998.0,-998.0,-998.0,0.0,0.0,0.0,左鎮,臺南市,120.408522,23.056758
C0F9O0,2022/10/30 19:20,175.0,-998.0,-998.0,-998.0,-998.0,0.0,0.0,0.0,潭子,臺中市,120.703933,24.213106
01O750,2022/10/30 19:20,130.0,-998.0,-998.0,-998.0,-998.0,0.0,0.0,0.0,王爺宮,臺南市,120.400432,23.222178
81H910,2022/10/30 19:20,198.0,-998.0,-998.0,-998.0,-998.0,0.0,0.0,0.0,平林國小,南投縣,120.7625,23.992778
72C440,2022/10/30 19:20,70.0,-998.0,-998.0,-998.0,-998.0,0.0,0.0,0.0,桃園農改,桃園市,121.030583,24.950944
01C400,2022/10/30 19:20,142.0,-998.0,-998.0,-998.0,-998.0,0.0,0.0,0.0,石門後池,桃園市,121.25144,24.824459
O1V520,2022/10/30 19:20,587.0,-998.0,-998.0,-998.0,-998.0,0.0,0.0,0.0,民權,高雄市,120.696723,23.240357
467990,2022/10/30 19:20,97.8,-998.0,-998.0,-998.0,-998.0,0.0,0.0,0.0,馬祖,連江縣,119.923158,26.169467
01D100,2022/10/30 19:20,940.0,-998.0,-998.0,-998.0,-998.0,0.0,0.0,0.0,太閣南,新竹縣,121.148046,24.625286
